eGRID2016 Plant file sequence number,Plant state abbreviation,Plant name,Plant latitude,Plant longitude,Plant primary fuel,Plant capacity factor,Plant nameplate capacity (MW),Plant annual net generation (MWh),Plant annual CO2 equivalent emissions (tons)
SEQPLT16,PSTATABB,PNAME,LAT,LON,PLPRMFL,CAPFAC,NAMEPCAP,PLNGENAN,PLCO2EQA
1,AK,7-Mile Ridge Wind Project,63.210689,-143.247156,WND,,1.8,,
2,AK,Agrium Kenai Nitrogen Operations,60.6732,-151.3784,NG,,21.6,,
3,AK,Alakanuk,62.6833,-164.6544,DFO,0.0533,2.6,1213,"1,050"
4,AK,Allison Creek Hydro,61.084444,-146.353333,WAT,0.0155,6.5,881,0
5,AK,Ambler,67.08798,-157.856719,DFO,0.1366,1.1,1316,"1,088"
6,AK,Anchorage 1,61.2221,-149.8661,NG,0.0424,121.4,45082,"31,903"
7,AK,Angoon,57.499166,-134.58614,DFO,0.103,1.9,1714,"1,430"
8,AK,Aniak,61.580678,-159.535643,DFO,0.1148,2.6,2614,"2,167"
9,AK,Annex Creek,58.3176,-134.101,WAT,0.7319,4,25644,0
10,AK,Auke Bay,58.3875,-134.6446,DFO,0,36.2,8,244
11,AK,Aurora Energy LLC Chena,64.847743,-147.735063,SUB,0.7002,31.3,191982,"191,349"
12,AK,Barrow,71.292,-156.7786,NG,0.2821,20.3,50162,"44,205"
13,AK,Battery Energy Storage System,64.8167,-147.725,MWH,0,40,-2392,0
14,AK,Beaver Falls,55.37975,-131.470269,WAT,0.9072,5.4,42915,0
15,AK,Beluga,61.1861,-151.0356,NG,0.0257,374.4,84421,"89,981"
16,AK,Bernice Lake,60.6935,-151.3874,NG,0,76.7,12,429
17,AK,Bethel,60.7897,-161.787778,DFO,0.3716,12.6,41020,"33,000"
18,AK,Black Bear Lake,55.476472,-133.14772,WAT,0.5267,4.5,20763,0
19,AK,Blue Lake Hydro,57.0516,-135.2297,WAT,0.3441,22.9,69018,0
20,AK,Bradley Lake,59.77862,-150.94015,WAT,0.39,126,430509,0
21,AK,Brevig Mission,65.331716,-166.479506,DFO,0.0865,1.5,1137,878
22,AK,Centennial,55.121433,-131.560267,DFO,0.1054,3.3,3046,"3,050"
23,AK,Chester Lake,55.116879,-131.545879,WAT,0.5234,1,4585,0
24,AK,Chevak,61.525297,-165.590152,DFO,0.1007,2.8,2471,"1,515"
25,AK,Cooper Lake,60.392331,-149.665603,WAT,0.51,19.4,86666,0
26,AK,Craig (AK),55.47691,-133.14869,DFO,0.0079,6.2,431,465
27,AK,Delta Power,64.028056,-145.719444,DFO,0.0002,23.1,38,298
28,AK,Delta Wind Farm,64.013889,-145.596667,WND,0.2671,1.9,4446,0
29,AK,Dillingham,59.042914,-158.468597,DFO,0.1933,10.7,18122,"14,187"
30,AK,Dutch Harbor,53.892459,-166.538185,DFO,0.206,26,46918,"34,984"
31,AK,Eielson AFB Central Heat & Power Plant,64.67141,-147.075988,SUB,0.2382,33.5,69895,"41,747"
32,AK,Eklutna Generation Station,61.457778,-149.351389,NG,0.5468,171,819046,"417,888"
33,AK,Eklutna Hydro Project,61.475211,-149.15009,WAT,0.1978,44.4,76916,0
34,AK,Elim,64.616558,-162.263717,DFO,0.0912,1.6,1278,948
35,AK,Emmonak,62.777694,-164.531517,DFO,0.1107,4.8,4654,"3,020"
36,AK,ESS Battery,57.799167,-152.404167,MWH,0,3,0,
37,AK,Eva Creek Wind,64.058333,-148.9,WND,0.3427,24.6,73845,0
38,AK,Fairbanks,64.854171,-147.719351,DFO,0.0193,42.2,7133,"12,944"
39,AK,False Island,55.48918,-133.1345,DFO,0.0492,1.6,689,559
40,AK,Fire Island Wind,61.13,-150.243611,WND,0.3553,18,56022,0
41,AK,Flywheel Energy Storage System,57.780114,-152.443783,MWH,0,2,0,
42,AK,Fort Greely Power Plant,63.973572,-145.716581,DFO,0.0012,10.4,108,89
43,AK,Galena Electric Utility,64.74417,-156.8736,DFO,0.0769,8,5390,"4,742"
44,AK,Gambell,63.777058,-171.712439,DFO,0.1148,1.9,1911,"1,143"
45,AK,George M Sullivan Generation Plant 2,61.229713,-149.716744,NG,0.1611,418,589738,"380,840"
46,AK,Glennallen,62.110415,-145.532529,DFO,0.1051,11.3,10403,"8,335"
47,AK,Goat Lake Hydro,59.5357,-135.2123,WAT,0.4839,4,16957,0
48,AK,Gold Creek,58.3107,-134.4174,WAT,0.0541,9.7,4597,9
49,AK,Green Lake,56.986284,-135.12275,WAT,0.2208,18.6,35983,0
50,AK,Gwitchyaa Zhee,66.566287,-145.253052,DFO,0.0486,6,2554,"2,469"
51,AK,Haines,59.235931,-135.446228,DFO,0,7.3,-201,101
52,AK,Healy,63.8542,-148.95,LIG,0.2368,92.8,192475,"300,820"
53,AK,Hiilangaay Hydro,55.216389,-132.603611,WAT,,5,,
54,AK,Hoonah,58.106432,-135.43074,DFO,0.1124,3.4,3348,"2,673"
55,AK,Hooper Bay,61.530858,-166.101944,DFO,0.1151,3.3,3326,"2,272"
56,AK,Humpback Creek,60.612822,-145.679411,WAT,0.3561,1.2,3743,0
57,AK,Hydaburg,55.204937,-132.821435,DFO,0,1,-9,16
58,AK,Industrial Plant,58.367635,-134.60802,DFO,0.0004,41.7,138,"1,531"
59,AK,International,61.168972,-149.911038,NG,0,46.3,-780,136
60,AK,Jarvis Street,57.0497,-135.3128,DFO,0.0049,25.6,1099,"1,734"
61,AK,JBER Landfill Gas Power Plant,61.286,-149.61,LFG,0.422,11.5,42516,1
62,AK,Kake,56.962983,-133.922557,DFO,0.0814,3,2139,"1,892"
63,AK,Kasidaya Creek Hydro,59.4072,-135.3408,WAT,0.271,3,7123,0
64,AK,Kasigluk,60.8731,-162.5197,DFO,0.1407,2.4,2958,"1,934"
65,AK,Ketchikan,55.344641,-131.633425,WAT,0.5622,4.2,20683,0
66,AK,Kiana,66.973889,-160.428592,DFO,0.1038,1.7,1545,"1,198"
67,AK,King Cove,55.061683,-162.3103,WAT,0.1719,2.6,3914,"1,663"
68,AK,Kivalina,67.726644,-164.538447,DFO,0.133,1.1,1282,971
69,AK,Klawock,55.557778,-132.981389,DFO,,1.4,,
70,AK,Kodiak,57.789956,-152.396982,DFO,0,37.3,0,
71,AK,Kotlik,63.03215,-163.553106,DFO,0.1571,1.4,1927,"1,466"
72,AK,Kotzebue,66.837778,-162.556944,DFO,0.1146,20.4,20474,"13,178"
73,AK,Koyuk,64.932089,-161.167103,DFO,0.1336,1.1,1287,947
74,AK,Lake Dorothy Hydroelectric Project,58.2325,-134.0533,WAT,0.6981,14.3,87454,0
75,AK,Lemon Creek,58.3536,-134.4953,DFO,0.0004,61.7,212,275
76,AK,Mahoney Lake Hydroelectric,55.419444,-131.537778,WAT,,9.6,,
77,AK,Marshall,61.878186,-162.085147,DFO,0.153,1.1,1474,"1,164"
78,AK,McGrath,62.95699,-155.594997,DFO,0.0817,3.2,2289,"1,808"
79,AK,Mountain Village,62.085569,-163.729072,DFO,0.0842,3.7,2729,"2,187"
80,AK,Naknek,58.730417,-157.007222,DFO,0.2269,11.1,22066,"9,587"
81,AK,New Stuyahok,59.448358,-157.325528,DFO,0.1095,1.4,1343,"1,037"
82,AK,Newhalen,59.899054,-154.698735,WAT,0.1133,3.2,3177,67
83,AK,Nikiski Co-Generation,60.676539,-151.377713,NG,0.5846,77.9,398898,"204,592"
84,AK,Noatak,67.570931,-162.965728,DFO,0.1217,1.7,1813,"1,406"
85,AK,Noorvik,66.834519,-161.038717,DFO,0.0963,2.2,1855,"1,432"
86,AK,North Pole,64.7356,-147.3481,WO,0.2634,181,417652,"328,134"
87,AK,Northway,62.9617,-141.9372,DFO,0.0843,1.5,1107,983
88,AK,NSB Anaktuvuk Pass,68.13795,-151.741017,DFO,0.1518,2.9,3855,"3,652"
89,AK,NSB Atqasuk Utility,70.4826,-157.4252,DFO,0.096,3.4,2859,"2,930"
90,AK,NSB Kaktovik Utility,70.125617,-143.619033,DFO,0.2011,2.6,4580,"4,294"
91,AK,NSB Nuiqsut Utility,70.220565,-150.993492,DFO,0.151,4.8,6349,"5,825"
92,AK,NSB Point Hope Utility,68.348424,-166.737211,DFO,0.1625,4.6,6549,"4,882"
93,AK,NSB Point Lay Utility,69.740833,-163.005833,DFO,0.0896,4.6,3609,"3,064"
94,AK,NSB Wainwright Utility,70.642877,-160.020461,DFO,0.2351,3.3,6796,"6,221"
95,AK,Nunapitchuk,60.89588,-162.459756,DFO,,2.2,,
96,AK,Nymans Plant,57.731608,-152.507044,DFO,0,10,0,
97,AK,Orca,60.555889,-145.752983,DFO,0.0466,13.7,5589,"4,604"
98,AK,Pelican,57.957197,-136.220095,WAT,0.038,2.9,964,2
99,AK,Petersburg,56.81104,-132.957091,WAT,0.0905,14.8,11732,102
100,AK,Pillar Mountain Wind Project,57.7869,-152.4406,WND,0.3718,9,29309,0
101,AK,Pilot Station,61.936456,-162.880706,DFO,0.1301,1.7,1938,"1,573"
102,AK,Port Lions,57.864775,-152.855441,DFO,0,1,0,
103,AK,Power Creek,60.588686,-145.604539,WAT,0.2956,6,15539,0
104,AK,Purple Lake,55.091263,-131.544978,WAT,0.4182,3.9,14286,0
105,AK,Quinhagak,59.747436,-161.910647,DFO,0.2237,1.1,2156,"1,462"
106,AK,S W Bailey,55.357397,-131.69696,DFO,0,25.9,-1111,636
107,AK,Salmon Creek 1,58.3269,-134.4631,WAT,0.3747,8.5,27902,0
108,AK,Savoonga,63.695267,-170.475661,DFO,0.1546,1.7,2302,"1,683"
109,AK,Scammon Bay,61.843036,-165.581497,DFO,0.1435,1.3,1634,"1,306"
110,AK,Selawik,66.606778,-160.014808,DFO,0.0747,4.3,2812,"2,169"
111,AK,Seldovia,59.439542,-151.713439,DFO,0.0018,5.5,87,65
112,AK,Seward (AK),60.130922,-149.43501,DFO,0.0006,18.6,105,144
113,AK,Shishmaref,66.255072,-166.073589,DFO,0.0813,2.3,1638,"1,261"
114,AK,Shungnak,66.888114,-157.140206,DFO,0.1476,1.2,1551,"1,262"
115,AK,Silvis,55.381402,-131.517758,WAT,0.7179,2.1,13207,0
116,AK,Skagway,59.4545,-135.3131,WAT,0.0722,4.4,2781,157
117,AK,Snake River,64.505331,-165.429814,DFO,0.1415,25.7,31847,"21,124"
118,AK,Snettisham,58.1415,-133.737,WAT,0.3986,78.2,273037,0
119,AK,Soldotna,60.499444,-150.997222,NG,0.0452,100,39612,"27,231"
120,AK,Solomon Gulch,61.0828,-146.3033,WAT,0.5218,12,54850,0
121,AK,South Fork,55.563333,-132.891111,WAT,0.3038,2,5322,0
122,AK,Southcentral Power Project,61.167417,-149.905304,NG,0.4882,203.9,871990,"393,968"
123,AK,St Marys IC,62.051525,-163.172567,DFO,0.0479,7.1,2980,"2,724"
124,AK,St. Michael,63.4775,-162.0383,DFO,,1.7,,
125,AK,Stebbins,63.521047,-162.286322,DFO,0.1195,3.2,3351,"2,744"
126,AK,Swampy Acres,57.77556,-152.48028,DFO,0,8.4,0,
127,AK,Swan Lake,55.615208,-131.356111,WAT,0.3599,22.6,71246,0
128,AK,Sweetheart Lake Hydroelectric Facility,57.9449,-133.6867,WAT,,19.8,,
129,AK,Terror Lake,57.6861,-152.895,WAT,0.4229,33.6,124484,0
130,AK,Tesoro Kenai Cogeneration Plant,60.677,-151.3815,NG,0.832,8.6,62679,"18,098"
131,AK,Thorne Bay Plant,55.68586,-132.52892,DFO,0,1,-1,54
132,AK,TNSG North Plant,70.235278,-148.383611,NG,0.3229,25.7,72702,"55,911"
133,AK,TNSG South Plant,70.2,-148.466667,NG,0,8.4,0,
134,AK,Togiak,59.059744,-160.380278,DFO,0.0922,3.7,2987,"2,405"
135,AK,Tok,63.33552,-142.99997,DFO,0.1378,7.6,9175,"7,191"
136,AK,Toksook Bay,60.530142,-165.108575,DFO,0.2303,1.7,3430,"2,364"
137,AK,Tyee Lake Hydroelectric Facility,56.216403,-131.504344,WAT,0.4895,22.6,96901,0
138,AK,Unalakleet,63.876789,-160.790414,DFO,0.1014,3.6,3199,"2,519"
139,AK,Unalaska Power Module,53.863993,-166.512591,DFO,0.03,1.1,289,238
140,AK,Unisea G 2,53.8796,-166.5532,DFO,0.1804,19.2,30339,"25,922"
141,AK,University of Alaska Fairbanks,64.854171,-147.822075,SUB,0.1184,39.6,41064,"24,759"
142,AK,Upper Kalskag,61.526858,-160.348128,DFO,0.1502,1.1,1447,"1,129"
143,AK,Utility Plants Section,64.825601,-147.648627,SUB,0.5355,22.5,105551,"69,032"
144,AK,Valdez,61.1303,-146.3647,DFO,0.0594,9.7,5050,"4,518"
145,AK,Valdez Cogen,61.0839,-146.2529,WO,0.3799,5.3,17636,"13,009"
146,AK,Viking,55.540708,-133.102344,DFO,0,1,-10,0
147,AK,Westward Seafoods,53.858508,-166.55288,DFO,0.3192,6.6,18455,"6,697"
148,AK,Whitman,55.328056,-131.530833,WAT,0.1819,4.8,7649,0
149,AK,Wrangell,56.460976,-132.379439,DFO,0.0003,14.7,44,55
150,AK,Yakutat,59.544553,-139.724306,DFO,0.0859,7.7,5794,"4,686"
151,AL,ABC Coke,33.582793,-86.779866,OG,0.0898,3.8,2989,994
152,AL,Alabama Pine Pulp,31.5825,-87.4889,BLQ,0.727,69,439412,"10,318"
153,AL,Alabama River Pulp,31.5825,-87.4889,BLQ,0.7384,48,310492,"12,953"
154,AL,Albertville,34.363389,-86.223889,DFO,0,4,0,
155,AL,AMEA Sylacauga Plant,33.1661,-86.2825,NG,0.0535,98.6,46242,"31,143"
156,AL,ANAD Solar Array,33.626728,-85.969481,SUN,,7.4,,
157,AL,APC1,,,NG,,270,,
158,AL,APC2,,,NG,,300,,
159,AL,APC3,,,NG,,200,,
160,AL,Bankhead Dam,33.458665,-87.356823,WAT,0,53.9,-325,0
161,AL,Barry,31.0069,-88.0103,BIT,0.5131,"2,841.50",12770891,"8,273,769"
162,AL,Bartletts Ferry,32.661976,-85.091552,WAT,0.2389,173,362014,0
163,AL,Bellefonte,34.7092,-85.9278,DFO,,14,,
164,AL,Boise Cascade Pulp & Paper Mill,31.4894,-87.8989,BLQ,0.7884,18,124312,"16,045"
165,AL,Browns Ferry,34.7042,-87.1189,NUC,0.8565,"3,494.00",26214623,0
166,AL,Calhoun Energy Center,33.5883,-85.9731,NG,0.0298,748,195125,"127,182"
167,AL,Charles R Lowman,31.488019,-87.910747,BIT,0.3142,538,1480692,"1,951,563"
168,AL,Colbert,34.7439,-87.8486,BIT,0.0465,"1,826.00",744333,"972,218"
169,AL,Crestwood Dothan,31.262356,-85.402737,DFO,0.0058,13.6,695,602
170,AL,Decatur Energy Center,34.6292,-87.0214,NG,0.329,902.4,2600458,"1,152,910"
171,AL,Decatur-Morgan Co LFG Recovery Project,34.623611,-87.101111,LFG,0.7827,1.6,10970,0
172,AL,District 100 Transco Gas Pipe Line,32.668889,-86.72,WH,,1.6,,
173,AL,E B Harris Generating Plant,32.381352,-86.574366,NG,0.2747,"2,534.00",6096885,"2,517,672"
174,AL,E C Gaston,33.244211,-86.458056,BIT,0.2402,"2,034.00",4280420,"5,013,582"
175,AL,ExxonMobil Mobile Bay Onshore,30.43203,-88.18241,NG,0.7923,12,83285,"25,609"
176,AL,Fort Rucker Solar Array,31.331148,-85.73019,SUN,,10.6,,
177,AL,Gadsden,34.0128,-85.9708,NG,0.158,138,190978,"118,251"
178,AL,Gantt,31.4033,-86.479469,WAT,0.2176,3,5718,0
179,AL,Georgia-Pacific Brewton Mill,31.077,-87.1116,BLQ,0.2232,115.9,226578,"36,521"
180,AL,Georgia-Pacific Consr Prods LP-Naheola,32.2268,-88.0252,BLQ,0.3194,78.4,219376,"38,496"
181,AL,Goat Rock,32.60965,-85.0805,WAT,0.2972,44.6,116128,0
182,AL,Gorgas,33.644344,-87.196486,BIT,0.4427,"1,416.70",5494441,"6,183,799"
183,AL,Greene County,32.6017,-87.7811,NG,0.116,"1,288.40",1309634,"1,060,024"
184,AL,Guntersville,34.421272,-86.393931,WAT,0.5017,115.2,506256,0
185,AL,H Neely Henry Dam,33.7845,-86.0524,WAT,0.2425,72.9,154855,0
186,AL,Harris Dam,33.258281,-85.616047,WAT,0.0972,135,114934,0
187,AL,Hillabee Energy Center,33.000669,-85.903278,NG,0.7474,822.8,5387101,"2,229,445"
188,AL,Hog Bayou Energy Center,30.7478,-88.0575,NG,0.6121,280,1501249,"668,314"
189,AL,Holt Dam,33.2553,-87.4495,WAT,0.3148,46.9,129325,0
190,AL,International Paper-Prattville Mill,32.4187,-86.4718,BLQ,0.7293,89.8,573671,"181,000"
191,AL,International Paper-Riverdale Mill,32.426016,-86.870912,NG,0.6321,104.2,576969,0
192,AL,James H Miller Jr,33.6319,-87.0597,SUB,0.7359,"2,822.00",18193039,"21,724,990"
193,AL,Jones Bluff,32.324242,-86.784319,WAT,0.2717,82,195134,0
194,AL,Jordan Dam,32.6189,-86.2548,WAT,0.3074,100,269244,0
195,AL,Joseph M Farley,31.2231,-85.1116,NUC,0.8796,"1,776.40",13687256,0
196,AL,LaFayette Solar Farm,32.876313,-85.38821,SUN,,79.2,,
197,AL,Langdale,32.813836,-85.167786,WAT,0,1,0,
198,AL,Lay Dam,32.9633,-86.5187,WAT,0.261,177,404623,0
199,AL,Lewis Smith Dam,33.9406,-87.1077,WAT,0.1475,181,233853,0
200,AL,Logan Martin Dam,33.425878,-86.337547,WAT,0.2373,128.1,266305,0
201,AL,Martin Dam,32.680394,-85.911442,WAT,0.1649,210.6,304289,0
202,AL,McIntosh (7063),31.2546,-88.0299,NG,0.0522,676,308871,"199,096"
203,AL,McWilliams,31.400255,-86.476449,NG,0.6662,654,3816606,"1,685,241"
204,AL,"MeadWestvaco Coated Board, LLC",32.1761,-85.0272,NG,0.7887,112.5,777256,"154,453"
205,AL,Millers Ferry,32.100881,-87.399767,WAT,0.2704,101.1,239468,0
206,AL,Mitchell Dam,32.806025,-86.444892,WAT,0.2502,170,372569,0
207,AL,Mobile Energy Services LLC,30.736487,-88.051643,WDS,0.4092,109.2,391430,"79,395"
208,AL,Morgan Energy Center,34.6397,-87.0639,NG,0.522,900,4115273,"1,615,156"
209,AL,Plant H. Allen Franklin,32.6078,-85.0975,NG,0.4964,"2,683.80",11670861,"4,826,857"
210,AL,Point A,31.361146,-86.518307,WAT,0.3098,5.2,14113,0
211,AL,"River Bend Solar, LLC",34.831511,-87.842204,SUN,0.0476,75,31261,0
212,AL,Rock-Tenn Mill,32.4541,-87.9759,BLQ,0.311,84,228860,"17,456"
213,AL,SABIC Innovative Plastics - Burkville,32.310226,-86.52542,NG,0.5615,97,477109,"129,366"
214,AL,Sand Valley Power Station,34.343875,-85.866103,LFG,0.6455,4.8,27140,0
215,AL,Sloss Industries Corp,33.568164,-86.79873,OG,0.1083,25,23726,"7,820"
216,AL,Tenaska Central Alabama Gen Station,32.6497,-86.74,NG,0.6385,927.1,5185641,"2,416,327"
217,AL,Tenaska Lindsay Hill Generating Station,32.6514,-86.7386,NG,0.3531,939.4,2905517,"1,244,588"
218,AL,Theodore Cogeneration,30.525445,-88.128477,NG,0.4577,317.4,1272659,"462,287"
219,AL,Thurlow Dam,32.535436,-85.887614,WAT,0.2517,91,200640,0
220,AL,U S Alliance Coosa Pines,33.328107,-86.356825,BLQ,0.2777,55.4,134783,"13,039"
221,AL,US Steel (Fairfield Works),33.4885,-86.9212,PRG,0,82,0,
222,AL,Walter Bouldin Dam,32.583889,-86.283056,WAT,0.2379,225,468960,0
223,AL,Walton Discover Power Facility,32.54098,-85.038879,NG,0.0214,103,19268,"14,291"
224,AL,Washington County Cogen (Olin),31.2504,-88.0156,NG,0.6697,122.5,718606,"284,186"
225,AL,Weiss Dam,34.172142,-85.753806,WAT,0.2138,87.6,164092,0
226,AL,Westervelt Moundville Cogen,32.960714,-87.655419,WDS,0.5162,8.8,39791,490
227,AL,Weyerhaeuser Pine Hill Operations,31.9698,-87.4806,BLQ,0.7021,77.4,476045,"21,140"
228,AL,Wheeler Dam,34.8069,-87.3819,WAT,0.2868,404,1014935,0
229,AL,Widows Creek,34.883022,-85.755253,BIT,,"1,968.60",,
230,AL,Wilson Dam,34.79782,-87.62537,WAT,0.3098,666.7,1809161,0
231,AL,Yates Dam,32.5743,-85.8901,WAT,0.2637,50.5,116654,0
232,AL,Yellowhammer Gas Plant,30.403538,-88.12833,NG,0.5868,3.4,17476,"17,605"
233,AR,Archer Daniels Midland Little Rock,34.7,-92.199722,NG,,4,,
234,AR,Arkansas Nuclear One,35.311,-93.2351,NUC,0.8304,"1,845.00",13421022,0
235,AR,Ashdown,33.6417,-94.1083,BLQ,0.4183,156.5,573418,"55,501"
236,AR,Beaver Dam,36.421507,-93.847373,WAT,0.1681,112,164928,0
237,AR,Blakely Mountain,34.570984,-93.194425,WAT,0.3407,75,223819,0
238,AR,Bull Shoals,36.3635,-92.5763,WAT,0.294,340,875676,0
239,AR,Carl Bailey,35.260102,-91.363426,NG,0.0154,120,16219,"11,189"
240,AR,Carpenter,34.4425,-93.0262,WAT,0.1428,56,70029,0
241,AR,Cecil Lynch,34.7535,-92.1987,,,231,,
242,AR,City Water & Light - City of Jonesboro,35.848561,-90.725377,NG,0.0345,224.3,67723,"37,753"
243,AR,Clearwater Paper APP CB,33.7061,-91.2371,BLQ,0.4044,28,99202,"10,385"
244,AR,Columbia Flooring Melbourne,36.060514,-91.919802,WDS,0.1307,2,2289,29
245,AR,Dam 2,33.986501,-91.315788,WAT,0.4215,102.6,378865,0
246,AR,Dardanelle,35.2503,-93.1686,WAT,0.4715,160.8,664117,0
247,AR,Degray,34.211913,-93.110963,WAT,0.1792,68,106751,0
248,AR,Dell Power Plant,35.8619,-90.0253,NG,0.1236,679.1,735515,"349,741"
249,AR,Elkins Generating Center,35.9714,-94.0014,NG,0.0135,66,7805,"5,695"
250,AR,Ellis Hydro,35.351361,-94.294349,WAT,0.4881,32.4,138536,0
251,AR,Flint Creek Power Plant,36.2561,-94.5241,SUB,0.4176,558,2041334,"2,407,860"
252,AR,Fourche Creek Wastewater,34.6968,-92.165,OBG,0.2271,2.8,5571,297
253,AR,Fulton,33.6094,-93.7924,NG,0.0355,154.8,48100,"30,189"
254,AR,Genova Arkansas I LLC,36.186111,-94.284166,NG,,631.4,,
255,AR,Georgia-Pacific Crossett LLC,33.1421,-91.975,BLQ,0.6301,91.6,505600,"56,005"
256,AR,Greers Ferry Lake,35.5207,-91.9953,WAT,0.2356,96,198122,0
257,AR,Hamilton Moses,34.9806,-90.8722,NG,,138,,
258,AR,Harry D. Mattison Power Plant,36.1855,-94.2841,NG,0.0384,349,117273,"89,238"
259,AR,Harvey Couch,33.3592,-93.4649,NG,,182.7,,
260,AR,Hot Spring  Energy Facility,34.29759,-92.868344,NG,0.2367,"1,429.70",2964241,"1,214,374"
261,AR,Independence,35.678442,-91.408761,SUB,0.4886,"1,800.00",7704239,"8,300,171"
262,AR,John W. Turk Jr. Power Plant,33.649722,-93.811944,SUB,0.7027,609,3748751,"3,764,882"
263,AR,Lake Catherine,34.4341,-92.9049,NG,0.0504,752,332156,"226,751"
264,AR,Lee Creek Water Treatment Facility,35.484488,-94.392858,WAT,0,1.3,0,
265,AR,Mabelvale,34.635997,-92.409602,NG,0,78,0,
266,AR,Magnet Cove Generating Station,34.4297,-92.8317,NG,0.3132,746,2046994,"884,487"
267,AR,McClellan,33.5648,-92.7917,NG,0.0515,136,61314,"46,347"
268,AR,Municipal Light,36.3858,-90.1867,DFO,0,7.2,0,
269,AR,Murray,34.7956,-92.3569,WAT,0.3718,45.4,147872,0
270,AR,Narrows (AR),34.148427,-93.715168,WAT,0.2083,25.5,46537,0
271,AR,Norfork,36.2491,-92.2401,WAT,0.3312,80.4,233281,0
272,AR,Osceola (AR),35.6893,-89.994,DFO,0,9.6,0,
273,AR,Oswald Generating Station,34.5923,-92.2166,NG,0.0989,599.5,519479,"251,571"
274,AR,Ozark,35.4693,-93.8175,WAT,0.1182,100,103533,0
275,AR,Ozarks Natural Energy,36.164296,-94.082269,SUN,0.1827,1,1600,0
276,AR,Paragould,36.060556,-90.521389,DFO,,4.1,,
277,AR,Paragould Reciprocating,36.0242,-90.5094,NG,0.0021,19.2,354,207
278,AR,Paragould Turbine,36.024272,-90.509229,NG,0.0003,13.9,41,33
279,AR,Pine Bluff Energy Center,34.2181,-91.9025,NG,0.5867,236,1212971,"401,453"
280,AR,Pine Bluff Mill,34.221213,-91.907365,BLQ,0.5566,85,414473,"10,015"
281,AR,Plum Point Energy Station,35.6644,-89.9489,SUB,0.7302,720,4605320,"4,824,513"
282,AR,Remmel,34.4272,-92.8941,WAT,0.5425,9,42767,0
283,AR,Riceland Foods Cogeneration Plant,34.5136,-91.5331,OBS,0.2755,18,43440,560
284,AR,Robert E Ritchie,34.4629,-90.5987,NG,,923.1,,
285,AR,SR Camden,33.631538,-92.703611,SUN,0.2335,12,24542,0
286,AR,Stuttgart Solar,34.439722,-91.44,SUN,,81,,
287,AR,Thomas Fitzhugh,35.462382,-93.804926,NG,0.1579,185,255902,"137,008"
288,AR,Two Pine Landfill Gas Recovery,34.8332,-92.157103,LFG,0.8038,4.8,33799,0
289,AR,UA Central Utility Plant,36.066336,-94.172254,NG,0.7694,5.6,37742,"23,582"
290,AR,Union Power Station,33.296146,-92.589364,NG,0.4448,"2,428.00",9459445,"4,014,570"
291,AR,Warren Lumber Mill,33.6206,-92.078889,WDS,0,15,0,0
292,AR,Waste Management Eco Vista LFGTE,36.140849,-94.259713,LFG,0.8801,4,30837,0
293,AR,Whillock,35.127591,-92.790273,WAT,0.5978,32.4,169672,0
294,AR,White Bluff,34.4228,-92.1406,SUB,0.3613,"1,800.00",5697538,"6,773,189"
295,AR,White River Lock and Dam 1,35.757401,-91.636887,WAT,0.1594,4.3,6005,0
296,AR,White River Lock and Dam 2,35.744036,-91.765418,WAT,0.5207,3.5,15966,0
297,AR,White River Lock and Dam 3,35.84361,-91.850521,WAT,0.5929,4.3,22334,0
298,AZ,Actus Lend Lease DMAFB,32.1825,-110.863333,SUN,0.1705,3,4481,0
299,AZ,Agua Caliente Solar Project,32.9774,-113.4945,SUN,0.1331,637.7,743533,0
300,AZ,Agua Fria Generating Station,33.5561,-112.2153,NG,0.0158,613.5,84854,"66,926"
301,AZ,Amonix UASTP Solar Power Station,32.108147,-110.824662,SUN,0.0622,1.9,1036,0
302,AZ,Amphitheater High School Solar,32.269,-110.975,SUN,0.0088,1,77,0
303,AZ,Apache Solar 1,32.068141,-109.890379,SUN,,20,,
304,AZ,Apache Station,32.0603,-109.8931,SUB,0.3574,660.7,2068779,"2,425,133"
305,AZ,APS Saguaro Power Plant,32.5517,-111.3,NG,0.0041,435.5,15748,"10,876"
306,AZ,APS West Phoenix Power Plant,33.4417,-112.1583,NG,0.2211,"1,326.90",2570029,"1,060,214"
307,AZ,Arizona State University CHP,33.417222,-111.928333,NG,0.6227,9.2,50187,"15,427"
308,AZ,Arizona Western College PV,32.687778,-114.49611,SUN,0.1974,5.7,9854,0
309,AZ,Arlington Valley Energy Facility,33.3417,-112.8897,NG,0.3019,713,1885829,"832,398"
310,AZ,Arlington Valley Solar Energy I,33.321667,-112.880555,SUN,,127,,
311,AZ,Arlington Valley Solar Energy II,33.305,-112.833888,SUN,0.3225,129,364396,0
312,AZ,Avalon Solar,32.001389,-110.960556,SUN,0.314,29,79764,0
313,AZ,Avalon Solar II,32.000854,-110.958427,SUN,0.2728,16,38231,0
314,AZ,Avra Valley Solar,32.371667,-111.282777,SUN,0.3224,26.5,74846,0
315,AZ,Badger 1,33.498003,-112.813458,SUN,0.3189,14.8,41342,0
316,AZ,Black Mountain Generating Station,35.0361,-114.1594,NG,0.0537,121,56868,"35,176"
317,AZ,Black Mountain Solar LLC,35.0227,-114.1627,SUN,0.262,9,20652,0
318,AZ,Bonnybrooke PV,33.053,-111.34,SUN,0.028,50,12278,0
319,AZ,"Buckeye Generation Center, LLC",33.230833,-112.626389,NG,,652.2,,
320,AZ,Buckeye Union HS District 201,33.419167,-112.576111,SUN,0.2559,3.3,7398,0
321,AZ,Canyon Del Oro High School Solar,32.374,-110.974,SUN,0.0011,1.5,15,0
322,AZ,Childs,34.351111,-111.700556,WAT,,5.4,,
323,AZ,Chino Solar Valley,34.71843,-112.42899,SUN,0.2748,19,45734,0
324,AZ,Cholla,34.9394,-110.3033,SUB,0.246,"1,128.80",2432167,"3,034,143"
325,AZ,Cogeneration 1,32.229922,-110.952797,NG,0.6892,9,54338,"16,466"
326,AZ,Cogeneration 2,32.240833,-110.948333,NG,0.7005,6,36816,"11,067"
327,AZ,Cogenra - TEP,32.101944,-110.813333,SUN,0.2397,1,2100,0
328,AZ,"Concord Blue Eagar, LLC",34.11494,-109.37503,OBG,,1.2,,
329,AZ,Coolidge Generating Station,32.917399,-111.503327,NG,0.0264,726,167696,"98,674"
330,AZ,Copper Crossing Energy Center,33.15512,-111.483636,NG,,"1,779.00",,
331,AZ,Copper Crossing Solar LLC,33.160601,-111.484011,SUN,0.3093,20,54194,0
332,AZ,Coronado Generating Station,34.5789,-109.2708,RC,0.6841,821.8,4924949,"6,200,915"
333,AZ,Cotton Center Solar,33.034722,-112.661667,SUN,0.2618,17,38993,0
334,AZ,Crosscut,33.439375,-111.946052,,,33,,
335,AZ,Davis Dam,35.197044,-114.570669,WAT,0.5013,254.8,1118857,0
336,AZ,Davis Monthan AFB (AZ) West Airfield,32.17356,-110.899734,SUN,,12.6,,
337,AZ,De Moss Petrie Generating Station,32.252273,-110.992148,NG,0.0064,95,5324,"5,060"
338,AZ,Desert Basin Generating Station,32.9042,-111.7889,NG,0.204,646.1,1154728,"550,490"
339,AZ,Dolan Springs,35.61,-114.26,WND,,300,,
340,AZ,Douglas,31.364122,-109.5538,DFO,0.0004,26.1,84,223
341,AZ,Dry Lake Solar,34.513333,-110.078333,SUN,,50,,
342,AZ,Dry Lake Wind II LLC,34.6062,-110.1734,WND,0.2041,65.1,116380,0
343,AZ,Dry Lake Wind LLC,34.6596,-110.2842,WND,0.2035,63,112321,0
344,AZ,FirstEnergy,33.935833,-113.555,NG,,"1,080.00",,
345,AZ,Foothills Solar Plant,32.64856,-114.428741,SUN,0.3161,35,96915,0
346,AZ,Fort Huachuca Solar PV Project,31.555278,-110.35,SUN,0.1982,18,31257,0
347,AZ,"Gato Montes Solar, LLC",32.102778,-110.819722,SUN,0.2277,5,9973,0
348,AZ,Gila Bend,32.940833,-112.881389,SUN,0.3674,32,102975,0
349,AZ,Gila Bend Power Generation Station,32.985977,-112.811009,NG,,"1,120.00",,
350,AZ,Gila River Power Station,32.975,-112.6944,NG,0.4247,"1,857.00",6909105,"3,211,577"
351,AZ,"Gilbert Solar Facility I, LLC",33.355862,-111.802355,SUN,0.1946,2.5,4261,0
352,AZ,Gillespie 1,33.026389,-112.665833,SUN,0.3359,15,44136,0
353,AZ,Glen Canyon Dam,36.936614,-111.483872,WAT,0.3495,"1,312.00",4016225,0
354,AZ,Glendale Energy Power Plant,33.540324,-112.306361,LFG,0.6309,2.8,15475,0
355,AZ,Gray Hawk Solar,35.3635,-113.8978,SUN,,55,,
356,AZ,Griffith Energy Project,35.054029,-114.133272,NG,0.3637,655,2086732,"917,373"
357,AZ,Headgate Rock,34.168264,-114.277356,WAT,0.4434,19.5,75735,0
358,AZ,Hoover Dam (AZ),36.01551,-114.738006,WAT,0.1997,"1,039.40",1818612,0
359,AZ,Horse Mesa,33.5907,-111.344,WAT,0.0401,129.5,45429,0
360,AZ,Hyder II,33.027,-113.3489,SUN,0.3025,14,37104,0
361,AZ,Hyder Solar,33.02566,-113.34397,SUN,0.211,22,40655,0
362,AZ,Intel - Ocotillo Campus Solar,33.243261,-111.892354,SUN,,4.2,,
363,AZ,IRC Generator Facility,36.9708,-112.5264,DFO,0,3,-21,16
364,AZ,Iron Horse Battery Storage,32.098492,-110.819119,,,12,,
365,AZ,Irving,34.402222,-111.617222,WAT,,1.6,,
366,AZ,Irvington Generating Station,32.16,-110.9047,NG,0.1589,558.5,777277,"545,794"
367,AZ,Jacobson 5 MW Solar,35.304528,-114.014747,SUN,,4.4,,
368,AZ,Jewish Community Center PV,33.603056,-111.924722,SUN,0.2311,1.1,2227,0
369,AZ,Kayenta Solar Project,36.771944,-110.263889,SUN,,27.3,,
370,AZ,Kingman 1,35.145833,-114.0675,WND,0.2711,10.5,24935,0
371,AZ,Kyrene Generating Station,33.3556,-111.9353,NG,0.2384,573.7,1198000,"522,953"
372,AZ,La Paz Solar Tower,33.917222,-114.2675,SUN,,200,,
373,AZ,La Senita,35.241675,-114.004591,SUN,0.2866,1,2511,0
374,AZ,Lake Pleasant WTP,33.820556,-112.24,SUN,0.2676,6.5,15235,0
375,AZ,Luke Solar,33.526111,-112.37944,SUN,,15,,
376,AZ,Macys Goodyear,33.409063,-112.414596,SUN,0.1734,3.5,5315,0
377,AZ,Maricopa County Community Colleges- Estr,33.409803,-112.340297,SUN,,1.7,,
378,AZ,Mesa Solar Array,33.346944,-111.603056,SUN,0,4,0,
379,AZ,Mesquite Generating Station,33.345,-112.864167,NG,0.3704,"1,383.20",4487692,"1,974,239"
380,AZ,Mesquite Solar 1,33.341833,-112.904028,SUN,0.2741,170,408250,0
381,AZ,"Mesquite Solar 2, LLC",33.332777,-112.911388,SUN,0.0151,100,13255,0
382,AZ,"Mesquite Solar 3, LLC",33.347583,-112.936805,SUN,0.016,150,21060,0
383,AZ,Mohave Electric at Fort Mohave,34.9843,-114.5565,SUN,0.116,14.4,14636,0
384,AZ,Mormon Flat,33.5536,-111.4431,WAT,0.0402,63.5,22336,0
385,AZ,Navajo Generating Station,36.9047,-111.3886,BIT,0.5714,"2,409.30",12058583,"14,068,344"
386,AZ,"New Harquahala Generating Company, LLC",33.47596,-113.113434,NG,0.2906,"1,325.10",3373732,"1,396,923"
387,AZ,North Loop,32.401,-111.1262,NG,0.001,107.8,934,1
388,AZ,Northwest Regional,33.681944,-112.476666,LFG,0.8122,3.2,22767,0
389,AZ,Novo BioPower Plant,34.503158,-110.334953,WDS,0.7411,27.2,176574,"7,973"
390,AZ,Ocotillo Power Plant,33.4225,-111.9122,NG,0.0136,"1,143.50",136005,"99,904"
391,AZ,Palo Verde,33.3881,-112.8617,NUC,0.878,"4,209.60",32377477,0
392,AZ,Paloma Solar,33.021111,-112.661389,SUN,0.2443,17.6,37662,0
393,AZ,Paradise Valley H.S. PV,33.6416,-111.9997,SUN,0.2289,1.3,2607,0
394,AZ,PB2 - Gila River,32.975,-112.694444,NG,0.0221,619,119891,"46,024"
395,AZ,Perrin Ranch Wind LLC,35.415556,-112.271111,WND,0.2557,99.2,222162,0
396,AZ,Phoenix Airport East Economy Lot,33.45,-111.98,SUN,0.215,1.1,2072,0
397,AZ,Phoenix Airport Rental Car Center,33.45,-111.98,SUN,0.4634,1.6,6495,0
398,AZ,"Picture Rocks Solar, LLC",32.369722,-111.242778,SUN,0.3182,20,55748,0
399,AZ,Pima Community College,32.146142,-110.990639,SUN,,1.3,,
400,AZ,Pima Energy Storage System,32.251647,-110.991333,MWH,,10,,
401,AZ,Prairie Fire,32.116389,-110.82,SUN,0.2254,4.5,8886,0
402,AZ,Prescott Airport,34.6584,-112.4008,SUN,0.0681,9.1,5432,0
403,AZ,Prescott Solar Plant,34.649444,-112.4275,SUN,0.2763,10.8,26142,0
404,AZ,Queen Creek Solar Farm,33.2675,-111.612222,SUN,0.3133,19,52143,0
405,AZ,RE Ajo 1 LLC,32.367013,-112.831401,SUN,0.234,4.5,9224,0
406,AZ,RE Bagdad Solar I LLC,34.585833,-113.177222,SUN,0.2397,16.6,34860,0
407,AZ,Red Horse 2,32.286111,-110.088056,SUN,0.3102,81,220108,0
408,AZ,Red Horse III,32.13597,-110.05129,SUN,0.1457,30,38278,0
409,AZ,Red Rock,32.551026,-111.289232,SUN,,40,,
410,AZ,Redhawk Generating Facility,33.334562,-112.840641,NG,0.5165,"1,140.30",5158899,"2,281,841"
411,AZ,Rio Rico Solar,31.5,-111.008056,SUN,0.2274,6,11951,0
412,AZ,Roger Road WWTP,32.2894,-111.0331,SUN,0.1878,1.1,1810,0
413,AZ,Roosevelt,33.671104,-111.161786,WAT,0.1869,36,58948,0
414,AZ,Saddle Mountain Solar I,33.378333,-113.180833,SUN,0.3635,15,47762,0
415,AZ,Sandstone Solar,33.035556,-111.430278,SUN,0.3082,45,121501,0
416,AZ,Santan,33.3325,-111.7503,NG,0.257,"1,326.00",2985179,"1,063,255"
417,AZ,Solana Generating Station,32.922294,-112.95594,SUN,0.2624,280,643670,0
418,AZ,South Consolidated,33.466477,-111.781064,WAT,0,1.4,0,
419,AZ,"South Point Energy Center, LLC",34.8678,-114.5317,NG,0.0162,708,100404,"46,914"
420,AZ,Springerville Generating Station,34.3186,-109.1639,SUB,0.4792,"2,179.20",9147059,"9,978,491"
421,AZ,SR85,33.145,-112.66,SUN,0.1019,10,8924,0
422,AZ,Stewart Mountain,33.5661,-111.536,WAT,0.2408,13,27419,0
423,AZ,Sulphur Springs,32.0628,-109.919283,SUN,0.0266,20,4656,0
424,AZ,"Sun Streams, LLC",33.34884,-112.8348,SUN,,150,,
425,AZ,Sundance Power Plant,32.9285,-111.5899,NG,0.0385,695,234372,"163,636"
426,AZ,T0588 Phoenix - AZ,33.447225,-112.217664,SUN,,1.2,,
427,AZ,TAA Solar Facility,32.115833,-110.940833,SUN,,2.8,,
428,AZ,Tech Park Solar,32.097884,-110.815696,SUN,0.2981,5,13055,0
429,AZ,Tri Cities,33.4833,-111.8172,LFG,,5,,
430,AZ,UASTP I,32.096973,-110.8106,SUN,0.1334,1.2,1402,0
431,AZ,UASTP II,32.096973,-110.8106,SUN,0.0732,14,8972,0
432,AZ,Union HS at Casa Grande,32.936944,-111.738611,SUN,0.2429,1.6,3404,0
433,AZ,University of Arizona - Biosphere 2,32.578011,-110.852608,NG,0.0018,3.1,49,68
434,AZ,Valencia,31.363472,-110.931343,NG,0.0007,108,620,585
435,AZ,Valencia Solar,32.145833,-110.866944,SUN,0.2689,10,23552,0
436,AZ,Vista Grande HS at Casa Grande,32.891389,-111.713056,SUN,0.1963,1.8,3095,0
437,AZ,Waddell,33.8447,-112.2714,WAT,0.1222,40,42832,0
438,AZ,Walmart Casa Grande,32.866837,-111.771751,SUN,0.1843,2,3228,0
439,AZ,Western Renewable Energy,34.093006,-109.289979,WDS,,3,,
440,AZ,White Wing Solar,32.994056,-113.508806,SUN,,200,,
441,AZ,Yucca Power Plant,32.7214,-114.7106,NG,0.0969,425,360704,"254,765"
442,AZ,Yuma Cogeneration Associates,32.728822,-114.654053,NG,0.0204,62.6,11206,"2,215"
443,CA,1420 Coil Av #C,33.794283,-118.241405,SUN,0.1398,1.3,1592,0
444,CA,2081 Terzian Solar Project,36.67,-119.415833,SUN,0.2474,1.2,2601,0
445,CA,2097 Helton Solar Project,37.352222,-120.506944,SUN,0.289,1.5,3798,0
446,CA,2127 Harris Solar Project,39.291667,-121.669722,SUN,0.2382,1.3,2712,0
447,CA,2555 E Olympic Bl,34.026944,-118.224167,SUN,0.2032,1,1780,0
448,CA,85 A,35.1011,-118.3372,WND,0.1296,14.1,16012,0
449,CA,85 B,35.1011,-118.3372,WND,0.1109,21.2,20601,0
450,CA,A G Wishon,37.15105,-119.504724,WAT,0.306,12.8,34315,0
451,CA,ABEC Bidart-Old River LLC,35.169722,-119.105556,OBG,0.6221,2,10899,7
452,CA,"Adelanto Solar II, LLC",34.557222,-117.3775,SUN,0.2805,7,17202,0
453,CA,Adelanto Solar Project,34.550833,-117.435277,SUN,0.1855,10,16245,0
454,CA,"Adelanto Solar, LLC",34.557222,-117.3775,SUN,0.3264,20,57181,0
455,CA,Adera Solar,37.120586,-120.32488,SUN,0.2155,20,37763,0
456,CA,Adobe San Jose,37.330556,-121.893056,NG,0.8347,1.2,8774,
457,CA,Aera San Ardo Cogen Facility,35.953293,-120.859952,NG,0.9007,6.2,48917,"15,965"
458,CA,Aera South Belridge Cogen Facility,35.4292,-119.6864,NG,,9,,
459,CA,Aerojet I,38.613508,-121.162879,SUN,0.2179,3,5725,0
460,CA,Aerojet II,38.6086,-121.1703,SUN,0.1632,2.7,3861,0
461,CA,AES Alamitos,33.7688,-118.1009,NG,0.0494,"2,055.00",889395,"661,294"
462,CA,"AES ES ALAMITOS, LLC",33.770202,-118.099665,MWH,,100,,
463,CA,AES Huntington Beach,33.6439,-117.9792,NG,0.0544,"1,021.00",486191,"328,922"
464,CA,AES Redondo Beach,33.8504,-118.395,NG,0.0278,"1,316.40",320555,"235,241"
465,CA,Agnews Power Plant,37.4058,-121.9272,NG,0.0594,32,16640,"8,498"
466,CA,Agua Mansa Power,34.0414,-117.3603,NG,0.0122,60.5,6466,"3,949"
467,CA,Aidlin Geothermal Power Plant,38.8339,-122.881,GEO,0.5721,25,125286,"15,051"
468,CA,Alameda,37.7886,-122.2889,NG,0.0075,54.8,3574,"3,174"
469,CA,Alamo,34.8158,-118.6867,WAT,0.3902,19.6,67000,0
470,CA,Alamo Solar,34.682222,-117.3475,SUN,0.3002,20,52591,0
471,CA,Algonquin Power Sanger LLC,36.6842,-119.5522,NG,0.1855,74,120258,"47,814"
472,CA,"Algonquin SKIC 10 Solar, LLC",35.126111,-119.243361,SUN,,10,,
473,CA,Algonquin SKIC20 Solar LLC,35.126111,-119.243333,SUN,0.262,20,45907,0
474,CA,Aliso Water Management Agency,33.537922,-117.70585,OBG,0.0006,1.2,6,1
475,CA,Almond Power Plant,37.5744,-120.985,NG,0.0572,223.5,111901,"70,398"
476,CA,Alpaugh 50,35.898333,-119.435278,SUN,0.3043,50,133296,0
477,CA,Alpaugh North,35.9025,-119.442778,SUN,0.2995,20,52471,0
478,CA,Alpine Solar,34.7892,-118.5047,SUN,0.1428,132,165117,0
479,CA,Alta Mesa Project Phase IV,33.946389,-116.663333,WND,,40,,
480,CA,Alta Powerhouse,39.215979,-120.80355,WAT,0.1783,2,3123,0
481,CA,Alta Wind Energy Center I,35.033725,-118.353422,WND,0.3146,150,413363,0
482,CA,Alta Wind Energy Center II,35.023889,-118.295278,WND,0.2741,150,360216,0
483,CA,Alta Wind Energy Center III,35.023889,-118.295278,WND,0.2896,150,380465,0
484,CA,Alta Wind Energy Center IV,35.008611,-118.242222,WND,0.2053,102,183393,0
485,CA,Alta Wind Energy Center V,35.008611,-118.242222,WND,0.1994,168,293378,0
486,CA,Alta Wind VIII,35.026683,-118.234811,WND,0.2243,150,294789,0
487,CA,Alta Wind X,35.06,-118.2,WND,0.3019,138,364926,0
488,CA,Alta Wind XI,35.065,-118.39,WND,0.3505,90,276368,0
489,CA,AltaGas Pomona Energy Inc.,34.059444,-117.774167,NG,0.0055,66,3190,"1,854"
490,CA,AltaGas Ripon Energy Inc.,37.732533,-121.116006,NG,0.0252,49.5,10941,"6,390"
491,CA,Altamont Gas Recovery,37.749308,-121.649866,LFG,0.6039,8.6,45492,0
492,CA,Altamont Midway Ltd,37.7392,-121.4322,WND,,10.9,,
493,CA,Altech III,33.915023,-116.555064,WND,0.1408,25.1,30957,0
494,CA,Alvarado Hydro Facility,32.7814,-117.0411,WAT,,2.1,,
495,CA,Amazon - Patterson PV,37.468888,-121.166326,SUN,,1.3,,
496,CA,Amazon San Bernardino,34.088408,-117.245839,NG,0.8222,1.1,7923,
497,CA,Amedee Geothermal Venture I,40.300833,-120.105,GEO,0,3,0,
498,CA,Ameresco Butte County,39.674,-121.73,LFG,0.787,2.3,15857,0
499,CA,Ameresco Chiquita Canyon,34.431664,-118.642855,LFG,0.5962,9.2,48046,0
500,CA,Ameresco Forward,37.883406,-121.185104,LFG,0.8471,4.4,32649,0
501,CA,Ameresco Johnson Canyon,36.534167,-121.408611,LFG,0.8529,1.4,10460,0
502,CA,Ameresco Keller Canyon,38.003928,-121.934491,LFG,0.9101,3.8,30295,0
503,CA,Ameresco Ox Mountain,37.5,-122.4,LFG,0.855,11.4,85387,0
504,CA,Ameresco San Joaquin,38.029722,-120.929722,LFG,0.695,4.4,26786,0
505,CA,Ameresco Santa Cruz Energy,36.9178,-121.8156,LFG,0.7468,3,19626,0
506,CA,Ameresco Vasco Road,37.754444,-121.728889,LFG,0.8627,4.4,33251,0
507,CA,"American Kings Solar, LLC",36.24,-119.898,SUN,,123,,
508,CA,Ampersand Chowchilla Biomass LLC,37.106668,-120.248504,WDS,0.6293,12.5,68912,"2,992"
509,CA,Anaheim Combustion Turbine,33.853542,-117.856286,NG,0.2856,49.2,123093,"22,929"
510,CA,Anaheim Solar Energy Plant,33.8025,-117.919722,SUN,0.1842,2.1,3389,0
511,CA,Angels,38.071944,-120.539444,WAT,0.4756,1.4,5833,0
512,CA,Anheuser-Busch #2,38.233611,-122.0925,WND,0.2808,1.6,3936,0
513,CA,Antelope Big Sky Ranch,34.694839,-118.28769,SUN,0.0974,20,17070,0
514,CA,Antelope DSR 1,34.655556,-118.280722,SUN,0.0153,50,6690,0
515,CA,Antelope DSR 2,34.686944,-118.311722,SUN,0.0317,5,1388,0
516,CA,Antelope DSR 3,34.736859,-118.304071,SUN,,20,,
517,CA,Antelope Expansion 2,34.744977,-118.309153,SUN,,105,,
518,CA,"AP North Lake I, LP",33.74,-117.010556,SUN,,20,,
519,CA,Apple Campus 2 Fuel Cell,37.33,-122.01,OBG,,4,,
520,CA,Apple Campus 2 PV,37.33,-122.01,SUN,,14.4,,
521,CA,Argus Cogen Plant,35.765,-117.3833,RC,0.5954,62.5,325958,"189,705"
522,CA,Arrache 4006,34.655,-118.051111,SUN,0.1618,2,2835,0
523,CA,Arrache 4013,34.650556,-118.051944,SUN,0.3356,1.5,4410,0
524,CA,Arrache 8083,34.647778,-118.061111,SUN,0.1018,4,3567,0
525,CA,Aspiration G,36.552186,-120.352481,SUN,,9,,
526,CA,ASTI,38.761389,-122.975278,SUN,0.1759,1,1541,0
527,CA,AT&T Anaheim,33.836439,-117.916893,NG,0.2396,1.3,2728,
528,CA,AT&T Holger,37.417638,-121.94453,NG,0.3714,1.3,4229,
529,CA,Atwell Island,35.895,-119.510833,SUN,0.2331,20.2,41255,0
530,CA,Atwell Island West Solar,35.815,-119.459722,SUN,0.3252,20,56979,0
531,CA,AV Solar Ranch One,34.780278,-118.42444,SUN,0.2772,253,614294,0
532,CA,Avenal Park,35.989722,-120.11,SUN,0.2428,6,12761,0
533,CA,AVS Lancaster 1,34.748894,-117.973571,SUN,0,3.7,0,
534,CA,Azusa,34.1548,-117.9093,WAT,0,3,0,
535,CA,B Braun Medical,33.688721,-117.834793,NG,0.684,6.1,36550,"11,671"
536,CA,Badger Creek Limited,35.483736,-119.029856,NG,0.0083,46,3339,
537,CA,Baker Creek Hydroelectric,40.526389,-123.725556,WAT,0.3109,1.5,4085,0
538,CA,Bakersfield 111,35.317551,-118.989894,SUN,0.271,1.4,3323,0
539,CA,Bakersfield College Solar 01,35.411817,-118.96864,SUN,0.2123,1.1,2046,0
540,CA,Bakersfield Industrial PV 1,35.330032,-118.993119,SUN,,1,,
541,CA,Bakersfield PV 1,35.324982,-118.981522,SUN,,5.3,,
542,CA,Balch 1,36.909137,-119.087712,WAT,0.4885,31,132644,0
543,CA,Balch 2,36.908907,-119.087556,WAT,0.3898,97.2,331916,0
544,CA,Barre Generating Station,33.8073,-117.9832,NG,0.0659,49.8,28750,"17,170"
545,CA,"Bayshore Solar A, LLC",34.667817,-118.298089,SUN,,20,,
546,CA,"Bayshore Solar B, LLC",34.678305,-118.302649,SUN,,20,,
547,CA,"Bayshore Solar C, LLC",34.681338,-118.314087,SUN,,20,,
548,CA,Beacon BESS 1,35.256526,-118.027519,MWH,,20,,
549,CA,Beacon Solar Plant Site 2,35.265833,-117.999167,SUN,,48,,
550,CA,Beacon Solar Plant Site 5,35.248889,-118.034444,SUN,,40,,
551,CA,Bear Canyon Power Plant,38.762968,-122.692915,GEO,,24.4,,
552,CA,Bear Creek,40.534454,-121.959109,WAT,0.2168,3.2,6078,0
553,CA,Bear Creek Solar,38.136389,-121.148889,SUN,0.2833,1.5,3722,0
554,CA,Bear Mountain Limited,35.419181,-118.926643,NG,0.02,46,8073,
555,CA,Bear Valley,33.166246,-117.016566,WAT,0.0657,1.4,806,0
556,CA,Bear Valley Power Plant,34.2506,-116.9025,NG,0,8.4,-36,372
557,CA,Beardsley,38.202569,-120.076983,WAT,0.7813,10,68443,0
558,CA,Belden,40.007445,-121.249438,WAT,0.1758,117.9,181578,0
559,CA,Beringer,38.510833,-122.479722,SUN,0.155,1.2,1629,0
560,CA,Berry Cogen,35.093046,-119.443617,NG,0.9148,38.7,310119,"98,301"
561,CA,Berry Cogen Tanne Hills 18,35.089829,-119.440881,NG,0.8766,17.6,135146,"43,763"
562,CA,Berry Placerita Cogen,34.38407,-118.494882,NG,0.811,42.8,304058,"100,839"
563,CA,Bidwell Ditch Project,40.8014,-121.4481,WAT,0.6407,1.8,10103,0
564,CA,Big Creek 1,37.2042,-119.2396,WAT,0.3644,88.4,282180,0
565,CA,Big Creek 2,37.2,-119.3069,WAT,0.5702,66.6,332639,0
566,CA,Big Creek 2A,37.200062,-119.30681,WAT,0.3728,110,359244,0
567,CA,Big Creek 3,37.148517,-119.386623,WAT,0.4994,174.5,763372,0
568,CA,Big Creek 4,37.139,-119.4898,WAT,0.4322,100,378638,0
569,CA,Big Creek 8,37.2096,-119.3289,WAT,0.3239,75,212772,0
570,CA,Big Creek Water Works,40.646733,-123.498008,WAT,0.2383,5,10436,0
571,CA,Big Pine Creek,37.142795,-118.324075,WAT,0.0529,3.2,1484,0
572,CA,Big Valley Power LLC,41.1325,-121.137222,WDS,,9.3,,
573,CA,Biola University,33.906953,-118.013105,NG,0.6686,2.2,12885,"3,897"
574,CA,Bishop Creek 2,37.273581,-118.573339,WAT,0.3888,7.3,24861,0
575,CA,Bishop Creek 3,37.301962,-118.531957,WAT,0.3109,8.4,22880,0
576,CA,Bishop Creek 4,37.323035,-118.501714,WAT,0.3298,8.2,23688,0
577,CA,Bishop Creek 5,37.3344,-118.4797,WAT,0.275,4.5,10842,0
578,CA,Bishop Creek 6,37.3499,-118.4628,WAT,0.5725,1.6,8024,0
579,CA,Black Butte,39.814905,-122.332335,WAT,0.1771,6.1,9463,0
580,CA,Black Rock I,33.1594,-115.6144,GEO,,70,,
581,CA,Black Rock II,33.1594,-115.6144,GEO,,70,,
582,CA,Black Rock III,33.1594,-115.6144,GEO,,70,,
583,CA,Blacksand Generating Facility,33.9328,-117.855,OG,0.4069,8,28518,"26,301"
584,CA,Blackwell Solar Park,35.604167,-119.849722,SUN,,20,,
585,CA,Blue Lake Power LLC,40.8786,-123.9942,WDS,0.0004,13.8,50,135
586,CA,Blythe Energy,33.6157,-114.6865,NG,0.1666,591,862724,"380,329"
587,CA,"Blythe Solar 110, LLC",33.68,-114.742,SUN,0.2197,109.8,211331,0
588,CA,"Blythe Solar II, LLC",33.68,-114.73,SUN,0.0883,131.2,101510,0
589,CA,"Blythe Solar III, LLC",33.656,-114.742,SUN,,124.8,,
590,CA,"Blythe Solar IV, LLC",33.682,-114.768,SUN,,124.8,,
591,CA,Bolthouse S&P and Rowen Farms Solar,34.5644,-117.6933,SUN,0.3594,1.2,3778,0
592,CA,Borden Solar Farm,36.941111,-119.96,SUN,,50,,
593,CA,Borel,35.588069,-118.524804,WAT,0,12,-218,0
594,CA,Borrego Springs Energy Storage,33.27011,-116.3496,MWH,0,1.5,-111,0
595,CA,Bottle Rock Power,38.8348,-122.7677,GEO,0,55,0,
596,CA,"Bowerman Power LFG, LLC",33.718889,-117.702222,LFG,0.5171,23.8,107803,0
597,CA,Bowman,39.448352,-120.653417,WAT,0.4661,3.6,14700,0
598,CA,Box Canyon Dam,41.2792,-122.3292,WAT,0.5459,5,23912,0
599,CA,BP Carson Refinery,33.8153,-118.2358,OG,0,13.5,0,
600,CA,Bradley Gas Recovery,34.2356,-118.3806,LFG,,6.5,,
601,CA,Brawley,32.968889,-115.534444,DFO,,23,,
602,CA,Brea Expansion Plant,33.932022,-117.840233,LFG,0.766,37.2,249613,0
603,CA,Britton Powerhouse,41.021389,-121.675,WAT,,2.8,,
604,CA,Broadridge Cogen,38.6183,-121.0564,NG,0.343,4.2,12618,"8,305"
605,CA,Broadway,34.1254,-118.148,NG,0.0176,167,25680,"17,908"
606,CA,Brookfield Tehachapi 1,35.008333,-118.241389,WND,0.3206,102,286428,0
607,CA,Buckeye Geothermal Power Plant,38.8242,-122.84,GEO,,56.9,,
608,CA,Bucks Creek,39.91062,-121.327692,WAT,0.4504,66,260393,0
609,CA,Buena Vista Biomass Power,38.277778,-120.913611,WDS,0.0884,22.5,17414,"1,348"
610,CA,Buena Vista Energy LLC,37.805,-121.6672,WND,0.2853,38,94980,0
611,CA,Buidling L,33.912917,-118.041944,SUN,0.0065,1,57,0
612,CA,Building F,33.914356,-118.050189,SUN,0.0062,1.3,71,0
613,CA,Building G,33.912917,-118.050561,SUN,0.0082,1.2,86,0
614,CA,Burney Creek,40.8579,-121.7225,WAT,0.272,3,7147,0
615,CA,Burney Forest Products,40.879719,-121.720342,WDS,0.7718,31,209592,"11,834"
616,CA,Burney Mountain Power,40.909483,-121.640368,WDS,,11.4,,
617,CA,Butt Valley,40.175656,-121.190663,WAT,0.2186,40,76608,0
618,CA,Butte College Main Campus Solar,39.648056,-121.644167,SUN,0.1661,3.5,5092,0
619,CA,C P Kelco San Diego Plant,32.6947,-117.1436,NG,0.3628,28,88980,"29,315"
620,CA,C&H Sugar Plant,38.057222,-122.218889,PUR,0.6146,8,43070,0
621,CA,CA Department of Public Health at Richmo,37.92,-122.344,SUN,,2.2,,
622,CA,"CA Flats Solar 130, LLC",35.615573,-120.404352,SUN,,130,,
623,CA,"CA Flats Solar 150, LLC",35.615573,-120.404352,SUN,,150,,
624,CA,Cabazon Wind Farm,33.914986,-116.71026,WND,0.1664,39.7,57869,0
625,CA,Cabazon Wind Partners,33.9172,-116.735,WND,0.3254,41,116855,0
626,CA,Cabrillo Power I Encina Power Station,33.1361,-117.3364,NG,0.0329,999.6,287880,"235,291"
627,CA,Calabasas Gas to Energy Facility,34.1511,-118.7236,LFG,0.2856,13.8,34529,0
628,CA,California Dairy Energy I LLC,36.295,-119.416667,OBG,,3.3,,
629,CA,California Institute of Technology,34.138467,-118.1256,NG,0.3785,24.3,80571,"25,180"
630,CA,California PV Energy at ISD WWTP,38.001111,-121.703889,SUN,0.2503,1,2193,0
631,CA,California State University San Bernardi,34.185833,-117.324167,NG,0.5471,1.4,6710,
632,CA,California Valley Solar Ranch,35.323739,-119.91663,SUN,0.3107,249.8,679796,0
633,CA,Calipatria Solar Farm,33.165833,-115.532222,SUN,0.2577,20,45140,0
634,CA,Calistoga Power Plant,38.7879,-122.7434,GEO,0.3609,176.4,557649,"66,993"
635,CA,CalPeak Power - Border,32.562448,-116.943869,NG,0.0215,60.5,11404,"7,276"
636,CA,CalPeak Power - Enterprise,33.121943,-117.117441,NG,0.0236,58.9,12176,"7,734"
637,CA,CalPeak Power - Panoche,36.6535,-120.5783,NG,0.027,110.4,26076,"11,677"
638,CA,CalPeak Power - Vaca Dixon,38.398867,-121.923973,NG,0.026,60.5,13758,"8,661"
639,CA,"Calpine Gilroy Cogen, LP",37.0001,-121.5367,NG,0.1242,130,141393,"57,184"
640,CA,Calpine Sutter Energy Center,39.053139,-121.695873,NG,0,636,120,167
641,CA,CalRenew-1,36.7575,-120.3658,SUN,0.2137,5,9358,0
642,CA,Caltech Central,34.1358,-118.1267,OBG,0.0008,1.1,8,
643,CA,Camanche,38.2268,-121.0245,WAT,0.1749,10.8,16549,0
644,CA,Cameron Ridge LLC,35.075,-118.3158,WND,0.333,59.6,173868,0
645,CA,Camino,38.82881,-120.537089,WAT,0.2923,157.8,404004,0
646,CA,Camp Far West,39.048802,-121.316966,WAT,0.4394,7.2,27711,0
647,CA,Campo Verde Solar,32.753333,-115.726389,SUN,0.2806,147.4,362327,0
648,CA,Cantua Solar Station,36.425085,-120.343543,SUN,0.25,20,43802,0
649,CA,Canyon Crest Academy,32.95907,-117.191622,MWH,0.0003,1,3,0
650,CA,Canyon Power Plant,33.858056,-117.861667,NG,0.0703,200,123094,"75,621"
651,CA,Caribou 1,40.085476,-121.148241,WAT,0.1322,73.8,85487,0
652,CA,Caribou 2,40.085997,-121.149373,WAT,0.2977,117.9,307410,0
653,CA,Carlsbad Energy Center,33.14,-117.333611,NG,,631.8,,
654,CA,Carson Cogeneration,38.445681,-121.462387,NG,0.3459,125.5,380261,"173,493"
655,CA,Carson Cogeneration Company,33.8759,-118.2491,NG,0.076,55.8,37159,"19,589"
656,CA,Cascade Solar,34.157222,-116.234444,SUN,0.324,18.5,52502,0
657,CA,Castaic,34.587237,-118.656638,WAT,0.0257,"1,682.00",378922,0
658,CA,Castle Rock Vineyards,35.801111,-119.110556,SUN,0.1978,1,1733,0
659,CA,Castor Solar,35.211044,-119.387258,SUN,0.1109,1.5,1457,0
660,CA,"Catalina Solar 2, LLC",34.812222,-118.352778,SUN,0.3584,18,56517,0
661,CA,Catalina Solar LLC,34.938261,-118.334492,SUN,0.2795,110,269368,0
662,CA,CBS Studio Center,34.145,-118.390833,NG,0.4517,2.4,9496,
663,CA,CBS Television City,34.075,-118.36,SUN,0.1822,1.6,2553,0
664,CA,CCCSD Wastewater Treatment Plnt,37.9978,-122.0697,NG,0.6312,3.5,19351,"6,697"
665,CA,CDCR (CA) - Pleasant Valley State Prison,36.137219,-120.224445,SUN,0.2687,1.6,3766,0
666,CA,CE Leathers,33.1779,-115.565,GEO,0.7495,45.5,298724,"24,248"
667,CA,CE Turbo LLC,33.1669,-115.5114,GEO,0.7914,11.5,79721,"6,471"
668,CA,CE&P Imperial Valley 1,32.912778,-115.518333,OTH,,50,,
669,CA,CED Avenal,35.996324,-120.15146,SUN,,15.8,,
670,CA,CED Ducor 1,35.856278,-119.068414,SUN,0.0125,20,2193,0
671,CA,CED Ducor 2,35.844167,-119.068069,SUN,0.0113,20,1978,0
672,CA,CED Ducor 3,35.845378,-119.056992,SUN,0.0106,15,1396,0
673,CA,CED Ducor 4,35.850403,-119.026992,SUN,0.0094,20,1652,0
674,CA,Center Generating Station,33.9296,-118.1046,NG,0.0523,59.8,27378,"16,313"
675,CA,Centerville PH,39.788877,-121.657383,WAT,,6.4,,
676,CA,Centinela Solar Energy,32.686944,-115.647778,SUN,0.3166,174.8,484764,0
677,CA,Central Antelope Dry Ranch B LLC,34.705549,-118.301417,SUN,,3,,
678,CA,Central Antelope Dry Ranch C,34.720499,-118.30046,SUN,0.1633,20,28606,0
679,CA,Central Utilities Plant LAX,33.943965,-118.40425,NG,,8,,
680,CA,Central Utilities Plant LAX 2,33.943889,-118.404167,NG,0.3815,9.2,30745,"9,028"
681,CA,Central Valley Ag Power,37.719722,-120.898611,OBG,0.0099,1.5,130,0
682,CA,Century Generating Facility,34.0606,-117.3533,NG,0.0027,44.8,1060,928
683,CA,CES Placerita Power Plant,34.3801,-118.4999,NG,,150,,
684,CA,Chalk Cliff Limited,35.0968,-119.4299,NG,0.0085,46,3411,"1,442"
685,CA,Chalk Mountain Powerhouse,40.988056,-121.768333,WAT,,2.2,,
686,CA,Chicago Park,39.177903,-120.890856,WAT,0.4186,44,161362,0
687,CA,Childrens Hospital,32.7992,-117.1517,NG,0.2717,11.5,27372,"12,061"
688,CA,Chili Bar,38.771764,-120.813239,WAT,0.5276,7,32350,0
689,CA,Chowchilla II,37.1073,-120.2485,NG,0.0534,49.6,23217,"14,089"
690,CA,Chuckawalla Solar,33.568333,-114.918056,SUN,0.2573,4,9016,0
691,CA,Chuckawalla Valley State Prison,33.565329,-114.903629,SUN,0.3635,1,3184,0
692,CA,Chula Vista Energy Center,32.591667,-117.058611,NG,0.0126,44,4847,"6,210"
693,CA,"CID Solar, LLC",36.138056,-119.564722,SUN,0.3063,20,53664,0
694,CA,Citizen B,36.723806,-120.432139,SUN,0.2799,5,12260,0
695,CA,City of Hayward WWTP,37.633526,-122.139717,OBG,0.5962,2.1,10968,478
696,CA,City of Madera WWTP,36.9408,-120.1572,SUN,0.2059,1.2,2164,0
697,CA,City of Palo Alto,37.4383,-122.1094,NG,0.0006,4.4,22,14
698,CA,City of Soledad Water Reclamation,36.421111,-121.340278,WND,0.4898,1,4291,0
699,CA,City of Tulare Water Facility,36.185,-119.375,OBG,0.1873,3,4922,0
700,CA,Civic Center,34.0564,-118.2436,NG,0.4592,34.5,138771,"43,867"
701,CA,Clear Lake Hydro Project,38.923556,-122.56668,WAT,,2.5,,
702,CA,Clearwater Power Plant,33.8912,-117.6085,NG,0.0548,49,23508,"9,733"
703,CA,Cloverdale Solar Center,38.769581,-123.020724,SUN,,1,,
704,CA,Cloverdale Solar I,38.773056,-123.017778,SUN,0.1709,1.5,2245,0
705,CA,Coachella,33.6758,-116.1714,NG,0.0011,92.4,910,896
706,CA,Coal Canyon,39.605043,-121.600525,WAT,,1,,
707,CA,Coalinga 25D Cogen,36.1556,-120.3972,NG,0.6198,13.6,73836,"22,283"
708,CA,Coalinga 6C Cogen,36.2097,-120.3828,NG,,6.8,,
709,CA,Coalinga Cogeneration Facility,36.1807,-120.3885,NG,0.763,38.4,256666,"96,821"
710,CA,Coalinga Cogeneration Facility,36.170317,-120.364084,NG,0.8666,6.8,51620,"16,153"
711,CA,Coca Cola American Canyon,38.190705,-122.275067,NG,0.0003,1.1,3,
712,CA,Cold Canyon 1,35.186667,-120.599444,LFG,0.7924,1.5,10412,0
713,CA,Coleman PH,40.404645,-122.121904,WAT,0.4483,12.1,47515,0
714,CA,Colgate,39.330833,-121.191666,WAT,0.3815,315,1052713,0
715,CA,Colgreen North Shore Solar Farm,33.540124,-115.974771,SUN,,74.8,,
716,CA,Collierville Powerhouse,38.144636,-120.380497,WAT,0.2079,253,460788,0
717,CA,Collins Pine Project,40.303422,-121.244431,WDS,0.089,12,9354,119
718,CA,Colon PV,33.792694,-118.252407,SUN,0.1921,1.3,2188,0
719,CA,"Colton Solar One, LLC",34.093333,-117.319444,SUN,0.2256,2.5,4940,0
720,CA,"Colton Solar Two, LLC",34.042222,-117.361667,SUN,0.2406,1,2108,0
721,CA,Columbia 3,35.024722,-118.164167,SUN,0.3019,10,26450,0
722,CA,"Columbia Solar Energy, LLC",38.019671,-121.86506,SUN,0.2425,19.2,40794,0
723,CA,Colusa Generating Station,39.3661,-122.27,NG,0.4662,712.4,2909398,"1,240,480"
724,CA,Combie South,39.0096,-121.0591,WAT,0.6033,1.5,7927,0
725,CA,Commerce Refuse To Energy,33.9949,-118.1538,MSW,0.7564,12,79508,"63,489"
726,CA,Community Solar 1,32.982778,-115.481944,SUN,0.2794,5.7,13953,0
727,CA,Con Dios Solar 11,34.26,-116.335278,SUN,,1.5,,
728,CA,Con Dios Solar 3,34.259722,-116.340278,SUN,,1.5,,
729,CA,Contra Costa,38.0192,-121.7642,NG,,718,,
730,CA,Control Gorge,37.437921,-118.556988,WAT,0.1128,37.5,37040,0
731,CA,Coolwater,34.8606,-116.8539,NG,,727.3,,
732,CA,Copco 1,41.978914,-122.335317,WAT,0.4621,20,80964,0
733,CA,Copco 2,41.975716,-122.358127,WAT,0.4431,27,104792,0
734,CA,Coram Energy LLC,35.075,-118.3417,WND,0.3076,4.4,11855,0
735,CA,Coram Energy LLC (ECT),35.0583,-118.3417,WND,0.2992,10.8,28310,0
736,CA,Coram Tehachapi,35.0663,-118.339444,WND,0.2475,6.5,14093,0
737,CA,Corcoran,36.102307,-119.566516,SUN,0.2098,1.1,2022,0
738,CA,Corcoran Solar,36.138333,-119.573333,SUN,0.2921,20,51179,0
739,CA,Corcoran Solar 2,36.141944,-119.581667,SUN,0.2932,19.8,50862,0
740,CA,Corcoran Solar 3,36.15042,-119.58542,SUN,0.3049,20,53413,0
741,CA,Corona,33.85895,-117.6106,WAT,0.7961,2.9,20224,0
742,CA,"Corona Energy Partners, Ltd",33.8827,-117.5565,NG,0.3199,47,131696,"59,325"
743,CA,Coronal Lost Hills,35.726667,-119.905833,SUN,0.3004,20,52623,0
744,CA,Coronus Adelanto West 1,34.548056,-117.464444,SUN,0.2379,1.5,3126,0
745,CA,Coronus Adelanto West 2,34.548056,-117.464444,SUN,0.2436,1.5,3201,0
746,CA,Coso Energy Developers,36.0019,-117.7886,GEO,0.3389,90,267151,"21,685"
747,CA,Coso Finance Partners,36.0372,-117.7981,GEO,0.6001,92.2,484689,"39,343"
748,CA,Coso Power Developers,36.0192,-117.7917,GEO,0.6009,90,473756,"38,456"
749,CA,Cosumnes Power Plant,38.338475,-121.123978,OG,0.8312,530,3859086,"1,588,819"
750,CA,Cottonwood,36.443421,-118.04389,WAT,0.1151,1.6,1613,0
751,CA,"Cottonwood Solar, LLC (City of Corcoran)",36.134444,-119.554444,SUN,0.2822,12,29661,0
752,CA,"Cottonwood Solar, LLC (Goose Lake)",35.593611,-119.58,SUN,0.3349,12,35207,0
753,CA,"Cottonwood Solar, LLC Cottonwood Carport",38.129759,-122.568158,SUN,0.0945,1,828,0
754,CA,Covanta Delano Energy,35.7144,-119.2337,,0,57,0,0
755,CA,Covanta Mendota,36.755896,-120.365422,NG,0,28,0,0
756,CA,Covanta Stanislaus Energy,37.3853,-121.141,MSW,0.7255,24,152532,"143,159"
757,CA,Cove Hydroelectric,40.8713,-121.9487,WAT,0.3783,5,16568,0
758,CA,Cow Creek,40.570817,-122.02093,WAT,0.5555,1.4,6813,0
759,CA,Coyote Creek,33.92493,-117.95517,WAT,0.2157,3.1,5858,0
760,CA,Crafton Hills College Solar Farm,34.043056,-117.098889,SUN,0.1586,1.3,1806,0
761,CA,Crazy Horse Solar Project,36.803269,-121.618971,SUN,,2,,
762,CA,Creed Energy Center,38.242158,-121.854722,NG,0.0207,47,8501,"5,747"
763,CA,Cresta,39.825907,-121.409687,WAT,0.3882,73.8,250939,0
764,CA,Crockett Cogen Project,38.0569,-122.2161,NG,0.6456,247.4,1399248,"490,430"
765,CA,Crown Cooling Facility,32.967222,-115.5325,SUN,0.1513,1,1325,0
766,CA,CSD 2 - Heritage High,37.921944,-121.755556,SUN,0.1903,1.3,2167,0
767,CA,CSD 2- Freedom High,37.969722,-121.719444,SUN,0.1724,1.1,1661,0
768,CA,CSU East Bay,37.658889,-122.059444,NG,0.2989,1.4,3666,
769,CA,CSU Fresno Solar Project,36.809841,-119.741665,SUN,0.165,1,1445,0
770,CA,CSU Northridge Plant,34.243333,-118.530556,NG,0.4027,2,7055,4
771,CA,CSUCI Site Authority,34.161951,-119.047916,NG,0.6269,31.1,170798,"69,432"
772,CA,CSUF Nutwood Solar,33.87912,-117.8887,SUN,0.001,1.9,17,0
773,CA,CSUF State College,33.87912,-117.8887,SUN,0.0016,1,14,0
774,CA,CSUF Trigeneration,33.880638,-117.88656,NG,0.432,8.5,32163,"9,740"
775,CA,CTV Power Purchase Contract Trust,35.0583,-118.3083,WND,0.2636,4.6,10620,0
776,CA,"Cuyama Solar, LLC",34.901,-119.596,SUN,,40,,
777,CA,Cuyamaca Peak Energy,32.796491,-116.972071,NG,0.0192,48.7,8176,"5,492"
778,CA,Cymric 31X Cogen,35.3639,-119.6592,NG,0.7693,6.8,45824,"13,870"
779,CA,Cymric 36W Cogen,35.3633,-119.6756,NG,0.6941,12.4,75396,"23,481"
780,CA,Cymric 6Z Cogen,35.346102,-119.643431,NG,0.7662,6.8,45643,"13,724"
781,CA,De Sabla,39.869265,-121.631819,WAT,0.3064,18.4,49393,0
782,CA,Deadwood Creek,39.53,-121.095833,WAT,0.1901,2,3330,0
783,CA,Deer Creek PH,39.29807,-120.8443,WAT,0.3304,5.5,15919,0
784,CA,Del Ranch Company,33.1646,-115.616,GEO,0.7601,45.5,302960,"24,592"
785,CA,"Delano Energy Center, LLC",35.790864,-119.294469,NG,0.0276,48.5,11715,"7,706"
786,CA,Delano Land 1,35.761217,-119.344408,SUN,,1,,
787,CA,"Delta Energy Center, LLC",38.0169,-121.8439,NG,0.414,943.5,3421553,"1,470,134"
788,CA,Depot Park Solar System,38.515,-121.398333,SUN,0.2003,3,5263,0
789,CA,Dept of General Services -FTB,38.565,-121.343,SUN,,2.7,,
790,CA,Desert Green Solar Farm LLC,33.27055,-116.34805,SUN,0.2571,6.3,14189,0
791,CA,Desert Hot Springs Solar,33.923056,-116.53,SUN,0.3141,2.3,6329,0
792,CA,Desert Quartzite,33.565,-114.753,SUN,,580,,
793,CA,"Desert Sunlight 250, LLC",33.8055,-115.3947,SUN,0.2852,249.7,623742,0
794,CA,"Desert Sunlight 300, LLC",33.823056,-115.393889,SUN,0.2629,313.7,722540,0
795,CA,Desert View Power,33.586,-116.0873,WDS,0.6846,55.5,332818,"13,796"
796,CA,DESI-1 Battery Energy Storage Facility,33.799248,-117.873371,MWH,,2.4,,
797,CA,Devil Canyon,34.2056,-117.3344,WAT,0.3624,276.2,876777,0
798,CA,DGS Central Utility Plant,38.573889,-121.501389,NG,0.0009,3.9,29,24
799,CA,Diablo Canyon,35.211536,-120.855542,NUC,0.9291,"2,323.00",18907578,0
800,CA,Diablo Wind LLC,37.763653,-121.614392,WND,0.4018,18,63351,0
801,CA,Diamond Valley Lake,33.6808,-117.0698,WAT,0.0048,39.6,1664,0
802,CA,Diamond Valley Solar Project,33.713056,-117.0725,SUN,0.2187,1.3,2490,0
803,CA,Difwind Farms Ltd I,33.898856,-116.57281,WND,0.1855,7.3,11859,0
804,CA,Difwind Farms Ltd II,33.893685,-116.567811,WND,0.1344,5.5,6475,0
805,CA,Difwind Farms Ltd V,33.887401,-116.578231,WND,0.136,11.7,13937,0
806,CA,Difwind Farms Ltd VI,35.0506,-118.1714,WND,0.1584,27.1,37610,0
807,CA,Difwind Farms Ltd VII,37.7581,-121.5253,WND,,24,,
808,CA,Difwind Farms Ltd VIII,35.0506,-118.1714,WND,,15,,
809,CA,Dillon Wind LLC,33.9393,-116.5527,WND,0.3617,45,142584,0
810,CA,Dinosaur Point,37.0478,-121.1708,WND,,17.4,,
811,CA,Dinuba Energy,36.571485,-119.419176,NG,0,11.5,0,0
812,CA,Dinuba Wastewater Treatment Plant,36.538056,-119.426388,SUN,0.2058,1,1803,0
813,CA,Dion R Holm,37.896649,-119.9675,WAT,0.472,156.8,648323,0
814,CA,Division,32.681667,-117.120277,DFO,,16,,
815,CA,Division 1,34.708333,-118.130556,SUN,0.2453,1.5,3223,0
816,CA,Division 2,34.708333,-118.130556,SUN,0.2349,1,2058,0
817,CA,Division 3,34.708333,-118.130556,SUN,0.2365,1,2072,0
818,CA,Dome Project,35.220833,-119.583056,NG,0.9368,6,49238,"18,448"
819,CA,Dominguez Plant,33.8431,-118.2347,WH,0.0284,5,1244,0
820,CA,Don Pedro,37.695994,-120.420152,WAT,0.1498,170.8,224070,0
821,CA,Donald Von Raesfeld,37.3767,-121.9508,NG,0.6927,154,934537,"441,826"
822,CA,Donnells,38.246656,-120.034072,WAT,0.5505,72,347220,0
823,CA,Double C Generation Limited Partnership,35.5005,-119.046,NG,0.024,49.8,10466,"6,356"
824,CA,Drews Generating Facility,34.0609,-117.3532,NG,0.0039,44.8,1515,"1,322"
825,CA,Drop 1,32.711611,-114.942666,WAT,0.2483,5.7,12398,0
826,CA,Drop 2 (CA),32.705435,-115.030975,WAT,0.522,10,45727,0
827,CA,Drop 3 (CA),32.705428,-115.126103,WAT,0.5752,9.2,46355,0
828,CA,Drop 4,32.705341,-115.219067,WAT,0.5429,19.6,93218,0
829,CA,Drop 5,32.673097,-115.392026,WAT,0.3855,4,13508,0
830,CA,Drum 1,39.256873,-120.767437,WAT,0.3644,49.2,157038,0
831,CA,Drum 2,39.257388,-120.767046,WAT,0.5294,53.1,246250,0
832,CA,DSH (CA) - Coalinga State Hospital,36.13726,-120.218453,SUN,0.1676,2.6,3817,0
833,CA,DTE Stockton,37.943633,-121.330433,WDS,0.7391,54,349636,"13,899"
834,CA,Dulles,34.030119,-117.517753,SUN,0.0316,2,553,0
835,CA,Dutch Flat,39.216985,-120.835587,WAT,0.4847,22,93409,0
836,CA,Dutch Flat 2,39.2184,-120.8352,WAT,0.38,27.3,90867,0
837,CA,Dutch Wind Energy,33.8942,-116.5603,WND,0.2683,8,18800,0
838,CA,Dyer Road,37.7392,-121.4322,WND,,10.5,,
839,CA,Dynegy Oakland Power Plant,37.79675,-122.28185,JF,0.0029,223.5,5625,"6,650"
840,CA,E F Oxnard Energy Facility,34.1958,-119.1664,NG,0.3821,48.5,162322,"71,761"
841,CA,E&B Resources,35.534584,-119.060029,SUN,0.259,1,2269,0
842,CA,EAFB - North Base,34.9325,-117.907222,SUN,0.2767,1.1,2666,0
843,CA,EAFB - South Base,34.917222,-117.900278,SUN,0.2653,1.1,2556,0
844,CA,East Highline,32.699451,-115.28245,WAT,0.1413,2.4,2970,0
845,CA,East Portal Generator,34.2619,-118.6242,WAT,0.4838,1.2,5086,0
846,CA,East Winds Project,33.890913,-116.541515,WND,0.2711,3,7125,0
847,CA,EDF Renewable Windfarm V Inc,38.1167,-121.8333,WND,0.1918,15.5,26039,0
848,CA,Edom Hills Project 1 LLC,33.881667,-116.460278,WND,0.1657,31,44987,0
849,CA,Edward C Hyatt,39.542985,-121.492188,WAT,0.3019,644.1,1703427,0
850,CA,Edwards Air Force Base,34.9077,-117.9206,SUN,0.1062,3,2790,0
851,CA,El Cajon,32.7958,-116.9722,NG,0.0051,18,801,757
852,CA,El Cajon Energy Center,32.796106,-116.972073,NG,0.0237,49.9,10340,"6,675"
853,CA,El Cajon Energy Storage,32.8115,-117.050546,MWH,,7.5,,
854,CA,El Centro,32.802222,-115.54,NG,0.269,438.3,1032735,"542,387"
855,CA,El Dorado,38.793574,-120.619152,WAT,0.3496,20,61247,0
856,CA,El Nido Facility,37.1867,-120.4903,WDS,0.6813,12.5,74601,"3,352"
857,CA,El Segundo,33.910556,-118.425,NG,0.0882,"1,533.80",1184687,"591,485"
858,CA,El Segundo Cogen,33.9058,-118.4031,NG,0.8693,182.8,1392040,"839,130"
859,CA,El Sobrante Gas Recovery,33.793842,-117.475112,LFG,0.317,3.9,10829,0
860,CA,ELACC Photovoltaic Power Facility,34.040278,-118.148056,SUN,0.0595,1,521,0
861,CA,Eland 1 Solar Farm,35.2237,-117.977,SUN,,200,,
862,CA,Eland 2 Solar Farm,35.2167,-117.977,SUN,,200,,
863,CA,Electra,38.330985,-120.669901,WAT,0.4835,102.5,434128,0
864,CA,Elevation Solar C,34.730263,-118.30425,SUN,0.0258,40,9046,0
865,CA,Elk Hills Cogen,35.479146,-119.737464,NG,0.1312,46.6,53543,"23,255"
866,CA,Elk Hills Power,35.280318,-119.470707,NG,0.6309,623,3442847,"1,270,580"
867,CA,Ellwood,34.431419,-119.900055,NG,0.0078,58,3939,"3,285"
868,CA,Elmore Company,33.1777,-115.6033,GEO,0.7662,45.5,305377,"24,788"
869,CA,Encina Water Pollution Control,33.1165,-117.3215,OBG,0.313,4.7,12885,702
870,CA,Energy Center,34.063056,-117.163889,NG,0.5527,1.5,7262,"5,167"
871,CA,Energy Nuevo Storage Farm,36.702036,-119.883003,MWH,,20,,
872,CA,Enerparc CA1 LLC,36.831667,-121.404167,SUN,0.2743,1.5,3604,0
873,CA,"Enerparc CA2, LLC",39.69898,-122.175583,SUN,0.2508,1.5,3296,0
874,CA,Equilon Los Angeles Refining,33.791667,-118.234722,OG,0.6811,83,495206,"164,135"
875,CA,Equinix San Jose,37.241713,-121.781363,NG,0.9086,1.1,8755,
876,CA,"Escondido Energy Center, LLC",33.1261,-117.1172,NG,0.0387,93.9,31846,"19,473"
877,CA,Escondido Energy Storage,33.124446,-117.114274,MWH,,30,,
878,CA,ESI Project,37.739167,-121.432222,WND,,14.2,,
879,CA,Etiwanda,34.10345,-117.5257,WAT,0,23.9,0,
880,CA,Etiwanda Generating Station,34.09118,-117.52663,NG,0.017,"1,050.10",156364,"117,483"
881,CA,Exchequer,37.584345,-120.26859,WAT,0.1791,94.5,148222,0
882,CA,Exeter Solar,36.2675,-119.128581,SUN,0.2269,3.5,6956,0
883,CA,Expressway Solar A,34.582222,-117.341667,SUN,0.2845,2,4985,0
884,CA,Expressway Solar B,34.583333,-117.340278,SUN,0.2527,2,4427,0
885,CA,Expressway Solar C2,34.584444,-117.341389,SUN,0.2844,1.5,3737,0
886,CA,ExxonMobil Santa Ynez Facility,34.464819,-120.044365,NG,,49.3,,
887,CA,FAA NorCal TRACON,38.559533,-121.257556,SUN,0.4995,1,4376,0
888,CA,Fairhaven Power,40.7995,-124.2028,WDS,0.4168,18.8,68637,"7,241"
889,CA,Fall Creek,41.985605,-122.360455,WAT,0.5515,2.1,10146,0
890,CA,Fallbrook Energy Storage,33.384244,-117.235322,MWH,,40,,
891,CA,Farad,39.394267,-120.021732,WAT,,2.8,,
892,CA,Farmersville,36.19,-119.12,SUN,0.2233,4.5,8804,0
893,CA,Feather River Energy Center,39.109344,-121.60931,NG,0.0633,47,26059,"18,464"
894,CA,Five Points Solar Park,36.386944,-120.236667,SUN,0.0817,60,42913,0
895,CA,Five Points Solar Station,36.400278,-120.103333,SUN,0.2271,15,29839,0
896,CA,Folsom,38.70675,-121.158443,WAT,0.3414,198.6,593960,0
897,CA,Fontana,34.155162,-117.397119,WAT,0.0492,3,1294,0
898,CA,Foothill,34.318248,-118.494449,WAT,0.3266,11,31469,0
899,CA,Foothill Feeder,34.5148,-118.6092,WAT,0.3472,9,27372,0
900,CA,Foothill Solar Project,34.2738,-118.3454,SUN,,1.1,,
901,CA,Forbestown,39.551012,-121.278784,WAT,0.3513,41.9,128938,0
902,CA,"Forever 21 Retail, Inc.",34.071389,-118.196111,SUN,0.1485,1.7,2212,0
903,CA,Forks of Butte Hydro Project,39.869284,-121.631865,WAT,0.4043,14.5,51348,0
904,CA,Foster Wheeler Martinez,38.0244,-122.0589,NG,0.7568,113.5,752411,"260,825"
905,CA,Foundation AB,38.232222,-122.092778,WND,0.1986,1.5,2610,0
906,CA,Foundation California Training Facility,36.464,-121.382,WND,,1.8,,
907,CA,Foundation CDCR LAC,34.691,-118.221,WND,,1.9,,
908,CA,Foundation Cemex BMQ,34.623056,-117.1125,WND,0.1281,3,3367,0
909,CA,Foundation Cemex Madison,38.692778,-121.9325,WND,0.1793,1,1571,0
910,CA,Foundation Cemex River Plant,34.561944,-117.307222,WND,0.1028,3.2,2882,0
911,CA,Foundation IE,34.084722,-117.529444,WND,0.0385,1,337,0
912,CA,Foundation Mann Packing,36.504,-121.454,WND,,1.8,,
913,CA,Foundation NWNA,33.914167,-116.749167,WND,0.3083,5.1,13774,0
914,CA,Foundation RRM,33.917222,-116.815,WND,0.5589,2,9792,0
915,CA,Foundation SaIinas Valley State Prison,36.474,-121.371,WND,,1.8,,
916,CA,Foundation Scheid Vineyards,36.274508,-121.191589,WND,,1.9,,
917,CA,Foundation ST,37.714167,-121.521666,WND,0.1552,2,2719,0
918,CA,Foundation Superior Farms,38.42,-121.818056,WND,0.1627,1,1425,0
919,CA,Foundation Wal-Mart Red Bluff,40.111111,-122.193889,WND,0.2266,1,1985,0
920,CA,Four Mile Hill,41.6014,-121.625,GEO,,49.9,,
921,CA,FPL Energy Montezuma Winds LLC,38.163581,-121.79661,WND,0.281,36.8,90591,0
922,CA,Frankenheimer Power Plant,37.830378,-120.806972,WAT,0.2047,5.3,9502,0
923,CA,Franklin (CA),34.103931,-118.413377,WAT,0,2,0,
924,CA,Franklin Templeton San Mateo,37.5425,-122.292778,NG,0.7414,1.1,7144,
925,CA,Freeway Springs,33.892614,-118.037564,SUN,0.014,2,245,0
926,CA,French Meadows,39.077971,-120.406069,WAT,0.4063,15.3,54456,0
927,CA,"Fresno Cogeneration Partners, LP",36.617022,-120.099846,NG,0.0092,104.9,8484,"2,295"
928,CA,Fresno Solar,36.616846,-120.105144,SUN,0.2452,3,6443,0
929,CA,Friant Hydro Facility,36.997694,-119.703451,WAT,0.1157,37.9,38412,0
930,CA,Frito-Lay Cogen Plant,35.395063,-119.321633,NG,0.5145,6,27041,"11,222"
931,CA,Frontier Solar LLC,37.379919,-121.130661,SUN,0.1622,20,28416,0
932,CA,FRV Cygnus Solar Project,35.102778,-118.954444,SUN,0.287,20,50282,0
933,CA,FRV SI Transport Solar LP,38.4869,-121.3911,SUN,0.1999,1,1751,0
934,CA,Fullerton Mill CHP,33.861667,-117.893056,NG,0.3677,21,67642,"22,609"
935,CA,G2 Energy Hay Rd,38.314722,-121.833611,LFG,0.8505,1.6,11921,0
936,CA,G2 Energy Ostrom Road LLC,39.0728,-121.3992,LFG,0.7961,3.5,24409,0
937,CA,Gap Pacific Distribution Center,36.7839,-119.7094,SUN,0.1879,1.2,1975,0
938,CA,Garnet Solar Generation Station I LLC,33.8906,-116.5431,SUN,0.274,4,9602,0
939,CA,Garnet Wind Energy Center,33.9053,-116.5825,WND,0.3272,6.5,18632,0
940,CA,Gas Utilization Facility,32.679172,-117.246698,OBG,0.7272,6.1,38861,13
941,CA,Gates Peaker,36.152715,-120.148245,NG,,46.5,,
942,CA,Gates Solar Station,36.176389,-120.114167,SUN,0.2495,20,43717,0
943,CA,Gateway Generating Station,38.0175,-121.7587,NG,0.4487,619.7,2435950,"1,061,675"
944,CA,Gaviota Oil Plant,34.475067,-120.205107,NG,0,14,0,
945,CA,GE 1.7-100 Prototype,35.155278,-118.369444,WND,0.1133,3.4,3373,0
946,CA,Genentech Vacaville Meter #1,38.390756,-121.94777,SUN,,6.1,,
947,CA,Genentech-Oceanside,33.211095,-117.299593,SUN,0.0747,6.5,4255,0
948,CA,Genesis Solar Energy Project,33.665,-114.998055,SUN,0.285,250,624142,0
949,CA,Geo East Mesa II,32.7757,-115.2637,GEO,0.3141,21.6,59440,"4,825"
950,CA,Geo East Mesa III,32.7757,-115.2637,GEO,0.2993,29.6,77604,"6,299"
951,CA,Geothermal 1,38.752,-122.7195,GEO,0.4932,110,475231,"57,092"
952,CA,Geothermal 2,38.7492,-122.7117,GEO,0.3568,110,343787,"41,301"
953,CA,Geysers Unit 5-20,38.777,-122.745,GEO,0.4151,"1,273.00",4628971,"556,102"
954,CA,Gianera,37.401,-121.96867,NG,0.0007,64.6,407,344
955,CA,Giffen,36.530278,-120.316111,SUN,0.118,20,20678,0
956,CA,Giffen Solar Park,36.544722,-120.316111,SUN,,20,,
957,CA,"Gilroy Energy Center, LLC",36.999,-121.5363,NG,0.0154,135,18168,"11,908"
958,CA,"Gilroy Energy Center, LLC for King City",36.225,-121.1278,NG,0.3593,133.2,419188,"3,033"
959,CA,Glenarm,34.126,-118.1494,NG,0.0139,265.6,32284,"30,456"
960,CA,Glendale Battery Energy Storage System,34.162327,-118.283684,MWH,,2,,
961,CA,Goal Line,33.1185,-117.0995,NG,0.0511,51.4,22993,"7,626"
962,CA,Golden Acorn Casino,32.702107,-116.354587,WND,0.4724,1,4138,0
963,CA,"Golden Fields Solar I, LLC",34.839012,-118.386843,SUN,0.0315,54,14887,0
964,CA,Golden Hills North Wind Energy Center,37.769189,-121.630163,WND,,46,,
965,CA,Golden Hills Wind,37.713311,-121.640353,WND,0.3757,85.9,282731,0
966,CA,Golden Springs Building C-1,33.914167,-118.053611,SUN,0.173,1.2,1819,0
967,CA,Golden Springs Building D,33.911944,-118.052222,SUN,0.1755,1.3,1999,0
968,CA,Goose Haven Energy Center,38.226752,-121.843271,NG,0.0213,47,8760,"6,011"
969,CA,Gosselin Hydro Plant,40.37,-123.4347,WAT,0.3465,2,6071,0
970,CA,Granger,33.2704,-117.0588,SUN,0.0753,3,1978,0
971,CA,Grapeland Generating Station,34.0903,-117.5343,NG,0.0638,59.8,33435,"19,718"
972,CA,Graphic Packaging International,37.368153,-121.943607,NG,0.8967,27,212079,"86,215"
973,CA,Grassland 1&2 Solar Project,38.500278,-121.694167,SUN,0.2129,2.5,4663,0
974,CA,Grassland 3&4 Solar Project,38.500278,-121.694167,SUN,0.2104,2.5,4608,0
975,CA,Grayson Power Plant,34.1556,-118.2782,NG,0.0467,353.9,144647,"82,474"
976,CA,Green Acres Solar Facility 1,38.282021,-121.464676,SUN,0.2557,3,6720,0
977,CA,Green Acres Solar Facility 2,38.28357,-121.461264,SUN,0.2643,1,2315,0
978,CA,Green Beanworks B PV,34.688042,-117.989541,SUN,,3,,
979,CA,Green Beanworks C PV,34.597,-117.931,SUN,,3,,
980,CA,Green Beanworks D PV,34.654976,-118.08215,SUN,,3,,
981,CA,Green Power I,33.9014,-116.7167,WND,0.1634,16.5,23620,0
982,CA,Greenleaf One,39.052922,-121.696072,NG,0.0806,66,46621,"19,929"
983,CA,Greg Avenue,34.20795,-118.3516,WAT,0,1,0,
984,CA,Gridley Main,39.373333,-121.684167,SUN,0.2042,1,1789,0
985,CA,Gridley Main Two,39.373333,-121.681667,SUN,0.2169,2.5,4749,0
986,CA,Grizzly,39.889287,-121.279173,WAT,0.2114,22,40738,0
987,CA,Grossmont Hospital,32.77973,-117.006397,NG,0.3636,6.1,19429,"6,507"
988,CA,GRS American Canyon,38.1419,-122.2439,LFG,,1.6,,
989,CA,GRS Coyote Canyon,33.613,-117.8219,LFG,0,20,0,0
990,CA,GRS Newby I,37.4567,-121.9419,LFG,,2,,
991,CA,Guernsey Solar Station,36.163889,-119.650556,SUN,0.2621,20,45922,0
992,CA,H. Gonzales,33.9986,-118.2219,NG,0.003,11.8,312,243
993,CA,Haas,36.927424,-119.02025,WAT,0.2915,135,344669,0
994,CA,Haiwee,36.109722,-117.956667,WAT,0.138,5.6,6770,0
995,CA,Halsey,38.956985,-121.041932,WAT,0.2468,13.6,29404,0
996,CA,Hamilton Branch,40.268712,-121.089479,WAT,0.2179,5.3,10118,0
997,CA,Hanford 1 and 2,36.306667,-119.629167,SUN,0.2299,3,6042,0
998,CA,Hanford Energy Park Peaker,36.270072,-119.648055,NG,0.0317,92.2,25634,"16,661"
999,CA,Harbor Cogen,33.7771,-118.2303,NG,0.0185,107.4,17402,"10,964"
1000,CA,Harbor Generating Station,33.7706,-118.2656,NG,0.026,595.1,135414,"88,638"
1001,CA,Hat Creek 1,40.929297,-121.544462,WAT,0.2915,10,25538,0
1002,CA,Hat Creek 2,40.960675,-121.548657,WAT,0.3727,10,32645,0
1003,CA,Hatchet Creek Project,40.874144,-121.920428,WAT,0.3472,6.8,20683,0
1004,CA,Hatchet Ridge Wind Project,40.8981,-121.8036,WND,0.324,101.2,287240,0
1005,CA,Haynes Generating Station,33.764741,-118.09913,NG,0.1333,"2,885.10",3368110,"1,579,199"
1006,CA,Haypress,39.565677,-120.581684,WAT,0.2818,10,24682,0
1007,CA,Hayworth Solar,35.325278,-118.878611,SUN,0.2504,27,59224,0
1008,CA,Heber Geothermal,32.7146,-115.518,GEO,0.6491,62.5,355359,0
1009,CA,Heber Solar,32.7125,-115.540556,SUN,0.2715,10.9,25925,0
1010,CA,Hecate Energy Beacon Solar 1,35.269444,-118.014444,SUN,,56,,
1011,CA,Hecate Energy Beacon Solar 3,35.253056,-118.014722,SUN,0.0061,56,3013,0
1012,CA,Hecate Energy Beacon Solar 4,35.253611,-118.026944,SUN,0.0209,50,9137,0
1013,CA,Heliocentric,34.65434,-117.971004,SUN,0.2125,1.5,2792,0
1014,CA,Helms Energy Center,36.549167,-120.111111,NG,,48,,
1015,CA,Helms Pumped Storage,37.029304,-118.968252,WAT,0,"1,053.00",-498562,0
1016,CA,Helzel & Schwarzhoff 86,35.0925,-118.3952,WND,0.1185,2.4,2492,0
1017,CA,Helzel & Schwarzhoff 88 Wind Farm,35.0908,-118.3936,WND,0.1089,1.8,1717,0
1018,CA,Henrietta D Energy Storage LLC,36.228872,-119.904686,MWH,,10,,
1019,CA,Henrietta Peaker Plant,36.2397,-119.9044,NG,0.0379,98,32522,"18,989"
1020,CA,Henrietta Solar Project,36.218806,-119.805833,SUN,0.1479,102,132134,0
1021,CA,Hesperia,34.435,-117.378056,SUN,0.2433,1.5,3197,0
1022,CA,HGST San Jose Standby Generator,37.2444,-121.7963,DFO,0.0001,55.3,29,68
1023,CA,Hickman,37.621536,-120.746247,WAT,0.3836,1,3360,0
1024,CA,High Desert Power Project,34.5953,-117.3647,NG,0.414,852,3089841,"1,391,941"
1025,CA,High Sierra Cogeneration Plant,40.4128,-120.4774,NG,0.6583,6,34600,"12,953"
1026,CA,High Sierra Limited,35.509041,-119.030546,NG,0.0244,49.8,10653,"5,850"
1027,CA,High Winds LLC,38.1381,-121.8053,WND,0.2215,162,314276,0
1028,CA,HL Power,40.368338,-120.264848,WDS,0.3714,36.2,117760,"7,206"
1029,CA,Hoag Hospital Cogen Plant,33.622778,-117.936389,NG,0,4.5,0,
1030,CA,Hollister Solar LLC,36.8625,-121.428889,SUN,0.289,1.5,3797,0
1031,CA,Honda Torrance,33.838056,-118.315,NG,0.7221,1.1,6958,
1032,CA,Horn,34.708889,-118.274167,SUN,0.3353,1.5,4406,0
1033,CA,Houweling Nurseries,34.179722,-119.083056,NG,0.6128,13.2,70863,"36,303"
1034,CA,Hudson Ranch Power II LLC,33.204444,-115.556667,GEO,,55,,
1035,CA,Humboldt Bay,40.7415,-124.2103,NG,0.1554,269.4,366744,"195,005"
1036,CA,Hunters Point,37.733611,-122.389722,,,427.4,,
1037,CA,Huron Solar Station,36.181389,-120.030555,SUN,0.2426,20,42504,0
1038,CA,Hyperion Treatment Plant CHP Plant,33.9254,-118.4298,OBG,,33,,
1039,CA,IKEA Tejon 345,34.975278,-118.946944,SUN,0.2246,1.5,2951,0
1040,CA,Imperial Solar Energy Center South,32.663289,-115.658284,SUN,0.2605,128.9,294191,0
1041,CA,Imperial Solar Energy Center West,32.772225,-115.779311,SUN,0.242,148.7,315255,0
1042,CA,"Imperial Valley Solar Co (IVSC) 2, LLC",33.252222,-115.4975,SUN,0.2834,20,49654,0
1043,CA,Imperial Valley Solar Company 1 LLC,33.245833,-115.496667,SUN,0.2628,23,52939,0
1044,CA,"Imperial Valley Solar, LLC",32.671099,-115.587265,SUN,0.1021,599.9,536525,0
1045,CA,Improvement Dst No. 4,35.402778,-119.038611,SUN,0.1559,1.1,1502,0
1046,CA,Indian Valley Dam Hydro Project,39.0788,-122.535556,WAT,0.0752,2.9,1910,0
1047,CA,Indigo Generation Facility,33.910873,-116.552994,NG,0.0263,149.7,34464,"21,680"
1048,CA,Industry MetroLink PV 1,34.008661,-117.845603,SUN,0.2182,1.5,2867,0
1049,CA,Industry Solar Power Generation Station 1 LLC,34.553056,-117.456944,SUN,0.3377,1.5,4437,0
1050,CA,Ingredion Stockton,37.9128,-121.2614,NG,0.2419,10,21188,"6,608"
1051,CA,Inland Empire Energy Center,33.738839,-117.170369,NG,0.0535,819,383868,"164,314"
1052,CA,Inskip,40.400988,-121.965502,WAT,0.2825,7.6,18808,0
1053,CA,Intel Folsom,38.645119,-121.172999,SUN,0.1878,1,1645,0
1054,CA,Intel Folsom Phase 2,38.643611,-121.163889,SUN,0.1986,1,1740,0
1055,CA,Intel Folsom Phase 3,38.645961,-121.162623,SUN,0.0337,5.2,1535,0
1056,CA,Intel Santa Clara,37.384745,-121.963808,NG,0.815,1.1,7853,
1057,CA,Iron Gate,41.932981,-122.43678,WAT,0.639,18,100752,0
1058,CA,Ironwood Solar LLC,33.565,-114.918056,SUN,0.2463,4,8629,0
1059,CA,Isabella Hydro Project,35.6439,-118.4822,WAT,0.0725,11.8,7498,0
1060,CA,ISH Solar Hospital Downey,33.921667,-118.124444,SUN,0.1677,1.1,1616,0
1061,CA,ISH Solar Hospital SDMC,32.791667,-117.095277,SUN,0.1691,1.1,1629,0
1062,CA,Ivanhoe Solar,36.3875,-119.255,SUN,0.2229,3.5,6835,0
1063,CA,Ivanpah 1,35.533056,-115.4525,SUN,0.2194,133,255655,"28,655"
1064,CA,Ivanpah 2,35.556111,-115.468611,SUN,0.1709,133.4,199682,"21,755"
1065,CA,Ivanpah 3,35.580833,-115.4825,SUN,0.212,133.4,247702,"26,454"
1066,CA,J S Eastwood,37.147926,-119.2567,WAT,0.1364,199.8,238699,0
1067,CA,J&A-Santa Maria II LLC,34.9494,-120.3803,LFG,0.6446,1.4,7905,0
1068,CA,J.R. Simplot Company,37.806944,-121.2775,WH,0.3071,4,10759,0
1069,CA,Jacumba Solar Farm,32.6212,-116.12896,SUN,,20,,
1070,CA,James B Black,40.992295,-121.975182,WAT,0.3976,168.6,587264,0
1071,CA,Jaybird,38.83405,-120.53176,WAT,0.4068,161.6,575860,0
1072,CA,John L. Featherstone Plant,33.204635,-115.573303,GEO,0.92,55,443269,"35,981"
1073,CA,Jones Fork,38.850283,-120.381883,WAT,0.2584,10,22638,0
1074,CA,Judge F Carr,40.646934,-122.626973,WAT,0.0987,154.4,133554,0
1075,CA,Juniper Networks Sunnyvale,37.406944,-122.026944,NG,0.7006,1.1,6751,
1076,CA,Kaiser Downey,33.919167,-118.128611,LFG,0.0005,1,4,
1077,CA,Kaiser Ontario,34.0325,-117.608889,OBG,0.0005,1,4,
1078,CA,Kanaka,39.558897,-121.296117,WAT,0.1325,1.1,1277,0
1079,CA,Karen Avenue Wind Farm,33.92194,-116.56222,WND,0.265,11.7,27156,0
1080,CA,Kaweah 1,36.465066,-118.862023,WAT,0.3462,2.3,6976,0
1081,CA,Kaweah 2,36.461326,-118.87988,WAT,0.364,1.8,5740,0
1082,CA,Kaweah 3,36.486059,-118.835645,WAT,0.4514,4.8,18979,0
1083,CA,Kaweah Delta District Hospital,36.3275,-119.2947,NG,0.4442,5.2,20233,"19,664"
1084,CA,Kearny,32.834,-117.1338,NG,0.0035,161.5,4961,"3,935"
1085,CA,Kekawaka Power House,40.0941,-123.508983,WAT,0.2921,4.9,12540,0
1086,CA,Kellogg's - San Jose,37.356389,-121.871944,NG,0.753,1.1,7256,
1087,CA,Kelly Ridge,39.531784,-121.491247,WAT,0.8464,10,74148,0
1088,CA,Kerckhoff,37.092486,-119.552826,WAT,0.1511,33.9,44863,0
1089,CA,Kerckhoff 2,37.071846,-119.558008,WAT,0.2477,139.5,302683,0
1090,CA,Kern Canyon,35.44072,-118.796498,WAT,0.407,9.5,33870,0
1091,CA,Kern Front Limited,35.51647,-119.040128,NG,0.0884,49.8,38562,"23,032"
1092,CA,Kern Oil & Refining Co,35.295556,-118.918333,NG,0.8149,4.5,32124,"25,601"
1093,CA,Kern River 1,35.460303,-118.77959,WAT,0.6589,26.4,152368,0
1094,CA,Kern River 3,35.776185,-118.436233,WAT,0.3345,40.1,117487,0
1095,CA,Kern River Cogeneration,35.4515,-118.9849,NG,0.2632,300,691722,"236,820"
1096,CA,Kern River Eastridge Cogen,35.4406,-118.9617,NG,0.5636,48.8,240943,"70,273"
1097,CA,Kern River Fee A Cogen,35.459849,-119.013573,NG,,7.4,,
1098,CA,Kern River Fee B Cogen,35.440481,-119.007726,NG,,3.7,,
1099,CA,Kern River Fee C Cogen,35.464253,-118.996337,NG,,7.9,,
1100,CA,Keswick,40.611858,-122.446441,WAT,0.3253,117,333401,0
1101,CA,Kettering Solar 1,34.700278,-118.123611,SUN,0.239,1,2094,0
1102,CA,Kettering Solar 2,34.700278,-118.123611,SUN,0.2233,1,1956,0
1103,CA,Kettleman Solar,35.99,-120.12,SUN,,22,,
1104,CA,Kettleman Solar -Centaurus,36.050833,-119.9475,SUN,0.3196,20,55998,0
1105,CA,Kettleman Solar Project,38.12139,-121.14122,SUN,0.2869,1,2513,0
1106,CA,Kiefer Landfill,38.5136,-121.1944,LFG,0.6867,9,54140,0
1107,CA,Kilarc,40.677827,-121.873253,WAT,0.5884,3,15462,0
1108,CA,King City Peaking,36.224758,-121.124633,NG,0.0106,47.3,4391,"2,998"
1109,CA,Kingbird A Solar LLC,34.819,-118.432,SUN,0.2402,20,42079,0
1110,CA,"Kingbird B Solar, LLC",34.824206,-118.438547,SUN,0.2265,20,39681,0
1111,CA,Kings Beach,39.245833,-120.027222,DFO,0.0008,31.2,225,180
1112,CA,Kings River PH,36.888166,-119.158777,WAT,0.2939,48.6,125119,0
1113,CA,Kingsburg Cogen Facility,36.5397,-119.5794,NG,0.0819,36.2,25975,"15,866"
1114,CA,Kingsburg Solar,36.505278,-119.540278,SUN,0.2319,3.7,7515,0
1115,CA,Kohls San Bernardino Solar Facility,34.094695,-117.266831,SUN,0.0981,1,859,0
1116,CA,Kumeyaay Wind,32.705556,-116.3425,WND,0.3261,50,142816,0
1117,CA,Kyocera America Project,32.819675,-117.140548,NG,0.2357,3.8,7846,"5,477"
1118,CA,L-8 Solar Project,34.654347,-117.973103,SUN,0.1655,1.5,2175,0
1119,CA,La Grange,37.6697,-120.4436,WAT,0.242,4.5,9540,0
1120,CA,La Joya Del Sol,36.678611,-119.7975,SUN,0.2382,1.5,3130,0
1121,CA,La Paloma Generating Plant,35.2956,-119.5919,NG,0.403,"1,200.00",4236172,"1,859,684"
1122,CA,Lake,34.1772,-118.3147,NG,0.0253,60.5,13397,"9,646"
1123,CA,Lake Hodges Hydroelectric Facility,33.058611,-117.119444,WAT,0,42,-10376,0
1124,CA,Lake Mathews,33.8553,-117.4537,WAT,0.7652,4.9,32845,0
1125,CA,Lake Mendocino,39.197222,-123.185556,WAT,0.2608,3.5,7997,0
1126,CA,Lake Perris Solar,33.8361,-117.1297,SUN,,1.5,,
1127,CA,Lambie Energy Center,38.221577,-121.868333,NG,0.0228,47,9366,"6,396"
1128,CA,Lancaster Baptist Church,34.695833,-118.058889,SUN,0.2452,1,2148,0
1129,CA,Lancaster Dry Farm Ranch B,34.716944,-118.289444,SUN,0.2964,5,12980,0
1130,CA,Lancaster Little Rock,34.599444,-117.932778,SUN,0.2953,5,12934,0
1131,CA,Lancaster SCE ReMAT,34.76027,-118.024608,SUN,,3,,
1132,CA,Lancaster Solar 1,34.715,-118.095,SUN,0.2725,1.5,3580,0
1133,CA,Lancaster Solar 2,34.710556,-118.166111,SUN,0.2725,1.5,3580,0
1134,CA,Lancaster WAD B,34.780192,-118.19333,SUN,,3,,
1135,CA,LanEast Solar Farm LLC,32.663611,-116.26472,SUN,,20,,
1136,CA,LanWest Solar Farm LLC,32.629722,-116.27194,SUN,,5,,
1137,CA,Larkspur Energy Faciity,32.567041,-116.944197,NG,0.0531,99.8,46403,"28,363"
1138,CA,Las Virgenes Municipal Water District,34.136111,-118.701944,SUN,0.2361,1,2068,0
1139,CA,LATTC South Campus Solar,34.033056,-118.269722,SUN,,1.1,,
1140,CA,Lemoore 1,36.257938,-119.798139,SUN,0.2231,1.5,2931,0
1141,CA,Life Technologies - Pleasanton,37.643889,-121.884167,NG,0.783,1.1,7545,
1142,CA,Life Technologies Carlsbad,33.137222,-117.286944,NG,0.7605,1.1,7328,
1143,CA,Lime Saddle,39.698755,-121.57096,WAT,0.1881,2,3295,0
1144,CA,Lincoln Landfill,38.838056,-121.341944,LFG,0.6562,4.8,27590,0
1145,CA,Lindberg FIeld Solar,32.729238,-117.207718,SUN,0.1926,3.2,5399,0
1146,CA,Lindberg Field Solar 2,32.729444,-117.205083,SUN,,1.9,,
1147,CA,Linde Wilmington,33.78856,-118.229392,NG,0,31,0,0
1148,CA,Lindsay Solar,36.211944,-119.133889,SUN,0.2236,4,7836,0
1149,CA,"Little Bear Solar 1, LLC",36.716,-120.415,SUN,,20,,
1150,CA,"Little Bear Solar 2, LLC",36.716,-120.41,SUN,,20,,
1151,CA,Little Rock Pham Solar,34.600231,-117.94751,SUN,0.3439,3,9038,0
1152,CA,Live Oak Limited,35.4837,-119.0298,NG,0.0259,46,10434,
1153,CA,Lockheed Martin Sunnyvale,37.413056,-122.028056,NG,0.7577,1.1,7301,
1154,CA,Lodi,38.146571,-121.300541,NG,0.007,27.4,1675,"1,901"
1155,CA,Lodi Energy Center,38.088056,-121.3875,NG,0.2095,288.9,530187,"230,980"
1156,CA,Loma Linda University Cogen,34.050391,-117.248417,NG,0.611,13.3,71184,"25,133"
1157,CA,Loma Rica Hydroelectric Powerhouse,39.223028,-120.99108,WAT,,1.4,,
1158,CA,Lone Valley Solar Park I LLC,34.398059,-116.865517,SUN,0.262,10,22954,0
1159,CA,Lone Valley Solar Park II LLC,34.408333,-116.8625,SUN,0.2567,20,44965,0
1160,CA,Long Beach Generating Station,33.7641,-118.2248,NG,0.0049,587.4,25032,"24,761"
1161,CA,"Longboat Solar, LLC",34.541,-117.061,SUN,0.0395,20,6921,0
1162,CA,Loon Lake,38.982697,-120.324503,WAT,0.1428,74.1,92670,0
1163,CA,Lopez Canyon,34.292645,-118.389774,LFG,,1.5,,
1164,CA,Los Angeles Harbor College,33.783102,-118.28493,SUN,0.2431,1.2,2555,0
1165,CA,Los Angeles Refinery Wilmington,33.7686,-118.2867,PRG,0.6228,68.5,373715,"114,965"
1166,CA,Los Esteros Critical Energy Facility,37.425,-121.9319,NG,0.0574,306.1,153933,"79,879"
1167,CA,"Los Medanos Energy Center, LLC",38.030071,-121.873004,NG,0.4801,678.3,2852471,"1,139,206"
1168,CA,Lost Creek I,40.7576,-121.4145,WAT,0.4184,1.1,4032,0
1169,CA,Lost Hills Cogeneration Plant,35.666111,-119.766944,NG,0.3973,10.5,36543,"14,323"
1170,CA,Lost Hills/Blackwell,35.62,-119.85,SUN,0.3281,32,91984,0
1171,CA,Lower Tule River,36.13568,-118.788868,WAT,0.4628,2.6,10540,0
1172,CA,Lundy,38.042729,-119.172015,WAT,0.2938,3,7722,0
1173,CA,Ma,34.695278,-118.0625,SUN,0.3306,1.5,4344,0
1174,CA,Maclay Solar Project,34.319722,-118.430833,SUN,,2.2,,
1175,CA,"Madelyn Solar, LLC",34.768333,-117.323611,SUN,0.3264,1,2859,0
1176,CA,Madera 1 PV,37.056468,-120.167021,SUN,,1.5,,
1177,CA,Madera Community Hospital,36.941111,-120.046667,SUN,0.2357,1,2065,0
1178,CA,Magnolia,34.178056,-118.315556,NG,,87.6,,
1179,CA,Magnolia,34.1786,-118.3153,NG,0.4796,387.6,1628469,"698,406"
1180,CA,Malaga Power,36.6697,-119.7404,NG,0.0274,121,29062,"18,190"
1181,CA,Malburg Generating Station,33.9986,-118.2219,NG,0.6403,130,729120,"317,779"
1182,CA,Mammoth Pacific I,37.6451,-118.9143,GEO,0.6729,10,58949,0
1183,CA,Mammoth Pacific II,37.6464,-118.9092,GEO,0.2738,30,71943,0
1184,CA,Mammoth Pool,37.220302,-119.337983,WAT,0.3801,190,632582,0
1185,CA,Mandalay Generating Station,34.2067,-119.2511,NG,0.0312,574,156692,"98,571"
1186,CA,Manteca Land PV,37.84013,-121.216191,SUN,,1,,
1187,CA,Manzana Wind LLC,34.9349,-118.4612,WND,0.3265,189,540522,0
1188,CA,Margarita Energy Center,33.549444,-117.627777,NG,,48.2,,
1189,CA,Mariani Packing Vacaville Solar,38.40008,-121.96366,SUN,0.2127,1,1863,0
1190,CA,Maricopa East Solar,35.098,-119.088,SUN,,18,,
1191,CA,Maricopa West Solar 2,35.121389,-119.325,SUN,,20,,
1192,CA,"Maricopa West Solar PV, LLC",35.115278,-119.317778,SUN,0.3,20,52566,0
1193,CA,Marin Clean Energy Solar One,37.945296,-122.377202,SUN,,10.5,,
1194,CA,Marina Landfill Gas,36.7131,-121.7686,LFG,0.242,9,19075,0
1195,CA,Mariposa Energy Project,37.789167,-121.601944,NG,0.0489,199.6,85575,"54,910"
1196,CA,Marsh Landing Generating Station,38.016944,-121.765,NG,0.0092,828,66671,"51,034"
1197,CA,Martinez Refining,38.0169,-122.1117,NG,0.9431,100,826189,"298,353"
1198,CA,Martinez Sulfuric Acid Regeneration Plt,38.0314,-122.1139,WH,0.3731,4,13072,0
1199,CA,Maxim,37.405689,-121.949416,NG,0.8435,1.1,8128,
1200,CA,MCAGCC Cogen Plant,34.237222,-116.054167,NG,,16.4,,
1201,CA,McClellan (CA),38.652731,-121.393336,NG,0.0078,77,5260,"3,969"
1202,CA,McClure,37.62936,-120.93139,NG,0.0023,142.4,2853,"3,602"
1203,CA,McCoy Solar Energy Project,33.694722,-114.739722,SUN,0.2929,270.6,694378,0
1204,CA,McGrath Generating Station,34.205556,-119.246944,NG,0.0717,49.8,31297,"18,686"
1205,CA,McKittrick Cogen,35.3161,-119.6597,NG,0.4396,21.6,83181,"55,982"
1206,CA,McKittrick Limited,35.319503,-119.661992,NG,0.018,46,7248,"3,078"
1207,CA,McSwain,37.522065,-120.31009,WAT,0.2555,9,20145,0
1208,CA,Merced 1 PV,36.989475,-120.878081,SUN,,3,,
1209,CA,Merced Falls,37.52301,-120.329905,WAT,0.2685,3.4,7997,0
1210,CA,Merced Solar LLC,37.267778,-120.484444,SUN,0.2759,1.5,3625,0
1211,CA,Meridian Vineyards,35.670278,-120.566944,SUN,0.1906,1.1,1837,0
1212,CA,Mesa Wind Power Corp,33.9461,-116.6769,WND,0.0277,29.9,7261,0
1213,CA,Mesquite Lake Energy Park Plant 2,32.903826,-115.511949,WDS,,21,,
1214,CA,Mesquite Lake Water & Power Plant 1,32.906569,-115.513747,WDS,,18.1,,
1215,CA,Metcalf Energy Center,37.2207,-121.7457,NG,0.483,635,2686602,"1,168,717"
1216,CA,Metro Support Services Center Solar,34.0578,-118.229722,SUN,0.1499,1.2,1576,0
1217,CA,Mid Valley Plant,34.1425,-117.4274,LFG,0.5184,2.6,11807,0
1218,CA,Middle Fork,39.024801,-120.596383,WAT,0.4961,122.4,531978,0
1219,CA,Middle Gorge,37.51,-118.569167,WAT,0.0644,37.5,21160,0
1220,CA,Mid-Set Cogeneration,35.19456,-119.57097,NG,0.7899,39.1,270558,"103,026"
1221,CA,Midway Peaking,36.654114,-120.579727,NG,0.0338,139.8,41395,"27,516"
1222,CA,Midway Solar Farm 1,33.176627,-115.572788,SUN,,50,,
1223,CA,Midway Solar Farm II,33.162056,-115.531694,SUN,,30,,
1224,CA,Midway Solar Farm III,33.154761,-115.544918,SUN,,20,,
1225,CA,Midway Sunset Cogen,35.2269,-119.6294,NG,0.4443,234,910688,"272,208"
1226,CA,Mill Creek 3,34.088019,-117.039539,WAT,0.199,3,5230,0
1227,CA,MillerCoors Irwindale Brewery,34.121667,-117.938333,NG,0.1575,13.9,19176,"7,972"
1228,CA,Millikan BESS,33.691,-117.833,MWH,0,2,0,
1229,CA,Mira Loma,34.013056,-117.5375,SUN,0.1487,3,3908,0
1230,CA,Mira Loma Energy Storage Facility,34.006125,-117.560934,MWH,0,20,0,
1231,CA,Mira Loma Generating Station,34.0053,-117.5604,NG,0.0747,49.8,32593,"19,687"
1232,CA,Miramar,32.8761,-117.1664,NG,0.0061,49,2624,"2,463"
1233,CA,Miramar Energy Facility,32.8769,-117.166389,NG,0.1323,106,122813,"73,741"
1234,CA,Mission Rock Energy Center,34.30873,-119.1067,,,300,,
1235,CA,Mission Solar LLC,37.267778,-120.4825,SUN,0.2735,1.5,3594,0
1236,CA,"Mitchell Solar, LLC",34.765,-117.323611,SUN,0.3413,1.5,4484,0
1237,CA,MM Lopez Energy,34.2925,-118.389444,LFG,0.7601,6,39949,0
1238,CA,MM San Diego-Miramar,32.844845,-117.162747,LFG,0.9066,6.4,50825,2
1239,CA,MM San Diego-North City,32.8817,-117.1958,LFG,0.922,3.6,29076,32
1240,CA,MM Tulare Energy,36.388,-119.394,LFG,,1.8,,
1241,CA,MM West Covina,34.033206,-117.906129,LFG,0.4663,11.7,47791,0
1242,CA,MM Yolo Power,38.596283,-121.687518,LFG,0.7021,2.8,17222,0
1243,CA,Mobile GT,40.741389,-124.210278,DFO,,39.9,,
1244,CA,Moccasin,37.809388,-120.299254,WAT,0.4104,100,359476,0
1245,CA,Moccasin Low Head Hydro Project,37.816447,-120.312033,WAT,0.0535,2.9,1359,0
1246,CA,Mojave 16,35.045,-118.2642,WND,0.1404,30,36900,0
1247,CA,Mojave 17,35.044,-118.2765,WND,0.1502,25,32898,0
1248,CA,Mojave 18,35.046,-118.2757,WND,0.1858,30,48832,0
1249,CA,Mojave 3,35.068,-118.2898,WND,0.3118,23.5,64184,0
1250,CA,Mojave 4,35.0506,-118.2572,WND,0.3136,29,79678,0
1251,CA,Mojave 5,35.076,-118.2487,WND,0.3303,22.5,65104,0
1252,CA,Mojave Siphon,34.307444,-117.323548,WAT,0.2178,32.7,62376,0
1253,CA,Mojave Solar Project,35.017717,-117.339144,SUN,0.2548,280,624907,0
1254,CA,Monterey Regional Water Cogen Facility,36.7056,-121.7714,OBG,0.5481,1.8,8643,956
1255,CA,Monterey Regional Water Pollution Contro,36.721111,-121.787778,SUN,0.1464,1,1282,0
1256,CA,Montezuma Wind II,38.116667,-121.821944,WND,0.2929,78.2,200624,0
1257,CA,Montgomery Creek Hydro,40.846806,-121.956446,WAT,0.4889,2.6,11134,0
1258,CA,Monticello Dam,38.513056,-122.104444,WAT,0.347,11.5,34959,0
1259,CA,Morelos del Sol,35.731362,-119.818712,SUN,0.2971,15,39044,0
1260,CA,Morgan Lancaster 1,34.6608,-118.0836,SUN,0.3251,1.5,4272,0
1261,CA,Moss Landing,36.804837,-121.782241,NG,0.1053,"2,802.00",2584936,"1,145,997"
1262,CA,Mount Signal Solar 2,32.6685,-115.6292,SUN,,153.5,,
1263,CA,Mount Signal Solar Farm 3,32.678805,-115.56721,SUN,,252.3,,
1264,CA,Mountain View I&2,33.9211,-116.5642,WND,0.3151,66.6,183827,0
1265,CA,Mountain View III,33.9141,-116.5914,WND,0.3748,22.4,73553,0
1266,CA,Mountain View IV,33.8816,-116.5527,WND,0.3866,49,165961,0
1267,CA,Mountainview Generating Station,34.0818,-117.2418,NG,0.4783,"1,167.40",4890772,"2,141,083"
1268,CA,Mt Lassen Power,40.2969,-121.0178,WDS,,11.4,,
1269,CA,Mt Poso Cogeneration,35.576323,-119.006245,WDS,0.4754,62,258203,"15,433"
1270,CA,Muck Valley Hydroelectric,40.976389,-121.255833,WAT,0.3366,29.9,88172,0
1271,CA,Municipal Cogen Plant,33.8247,-116.5106,NG,0.1974,2.6,4496,"2,246"
1272,CA,Munro Valley Solar,36.2647,-117.9955,SUN,0.0116,4,405,0
1273,CA,Murphys,38.147093,-120.446396,WAT,0.4362,3.6,13756,0
1274,CA,Mustang Hills LLC,35.030855,-118.293188,WND,0.2394,150,314587,0
1275,CA,MVUT,32.765,-117.1639,NG,0,3.1,0,
1276,CA,Nacimiento Hydro Project,35.798576,-120.883331,WAT,0.0276,4.4,1062,0
1277,CA,Narrows 2,39.238996,-121.270409,WAT,0.0702,46.7,28713,0
1278,CA,Narrows PH,39.2364,-121.271741,WAT,0.4692,10.2,41923,0
1279,CA,Navajo Solar Power Generation Station 1 LLC,34.551111,-117.191111,SUN,0.3453,1.5,4537,0
1280,CA,Naval Air Weapons Station China Lake,35.68771,-117.68137,SUN,0.3026,11.1,29424,0
1281,CA,Naval Hospital Medical Center,32.7261,-117.1464,NG,0.0605,7.7,4083,"1,612"
1282,CA,Naval Station,32.681667,-117.120277,NG,,26,,
1283,CA,Naval Station Energy Facility,32.679269,-117.122447,NG,0.7298,55.2,352885,"154,192"
1284,CA,Naval Training Center,32.735556,-117.208333,NG,,16,,
1285,CA,NCPA Combustion Turbine Project #2,38.088138,-121.386944,NG,0.0053,50,2304,"1,195"
1286,CA,Neenach Solar Center,34.812791,-118.60117,SUN,,1.5,,
1287,CA,Nelson Creek,41.028893,-121.892351,WAT,0.238,1.2,2502,0
1288,CA,New Hogan Power Plant,38.149582,-120.814942,WAT,0.1833,3,4816,0
1289,CA,New Melones,37.946927,-120.528211,WAT,0.0807,300,212094,0
1290,CA,Newberry Solar 1 LLC,34.853581,-116.683108,SUN,0.1938,1.5,2546,0
1291,CA,Newcastle,38.835182,-121.092982,WAT,0.1444,12.7,16068,0
1292,CA,New-Indy Ontario Mill,34.045361,-117.540193,NG,0.8226,34,244988,"82,356"
1293,CA,NextEra Westside PV,36.381775,-120.134486,SUN,,20,,
1294,CA,Nickel 1 Solar Facility,35.647295,-119.716512,SUN,0.2276,1.5,2991,0
1295,CA,Nicolis Solar PV Plant,35.835833,-119.056111,SUN,0.0585,20,10254,0
1296,CA,Niland Gas Turbine Plant,33.238842,-115.504456,NG,0.0718,121,76093,"44,970"
1297,CA,Nimbus,38.63735,-121.220198,WAT,0.4597,13.4,53959,0
1298,CA,Nordhoff Place,34.236667,-118.565833,SUN,0.1679,1.2,1765,0
1299,CA,North Bay Solar 1,38.300556,-121.966389,SUN,0.2458,1,2153,0
1300,CA,North Brawley Geothermal Plant,33.0139,-115.5439,GEO,0.1264,64,70885,0
1301,CA,North City Cogeneration Facility,32.877822,-117.197788,LFG,0.6511,1.6,9126,0
1302,CA,North Fork Community Power,37.231531,-119.49425,OBG,,2,,
1303,CA,North Hollywood,34.194444,-118.39028,WAT,0,9,0,
1304,CA,North Island,32.705,-117.190277,,,37,,
1305,CA,North Island Energy Facility,32.70516,-117.189665,NG,0.874,40.3,308548,"117,729"
1306,CA,North Lancaster Ranch,34.719538,-118.31301,SUN,0.0055,20,969,0
1307,CA,North Midway Cogen,35.2761,-119.5986,NG,,10.5,,
1308,CA,North Palm Springs 1A,33.924167,-116.593333,SUN,0.168,2.5,3678,0
1309,CA,North Palm Springs 4A,33.909722,-116.5625,SUN,0.1607,4,5630,0
1310,CA,North Rosamond Solar LLC,34.862,-118.38,SUN,,150,,
1311,CA,North Sky River Energy LLC,35.347778,-118.186389,WND,0.3272,162,464374,0
1312,CA,North Star Solar,36.73,-120.41,SUN,0.2733,62.5,149639,0
1313,CA,Nove Power Plant,37.9676,-122.382,LFG,0.1812,3,4761,0
1314,CA,NRG Energy San Diego,32.7149,-117.1689,NG,0.0923,1.6,1294,452
1315,CA,NRG Solar Blythe LLC,33.5917,-114.7444,SUN,0.2472,21,45470,0
1316,CA,NRG Solar Borrego I,33.298889,-116.35083,SUN,0.3121,26,71082,0
1317,CA,NRG Solar Oasis LLC,34.648889,-118.076667,SUN,0.3374,20,59114,0
1318,CA,NTC/MCRD Energy Facility,32.7353,-117.2083,NG,0.7436,25.6,166748,"67,517"
1319,CA,Nunn,34.509167,-117.154444,SUN,0.3374,1,2956,0
1320,CA,Oak Creek Energy Systems I,35.043889,-118.276388,WND,0.2173,34.5,65658,0
1321,CA,Oak Flat,40.07531,-121.16143,WAT,0.4789,1.4,5873,0
1322,CA,Oakley Generating Station,38.01,-121.7475,NG,,672.3,,
1323,CA,Oakley Solar Project,38.001667,-121.747778,SUN,0.1938,1.5,2546,0
1324,CA,Oasis Wind,35.06094,-118.292406,WND,0.3404,60,178931,0
1325,CA,Occidental College Solar Project,34.1283,-118.206903,SUN,0.2121,1,1858,0
1326,CA,Ocotillo Express LLC,32.752778,-116.044722,WND,0.2284,265.4,530978,0
1327,CA,Oildale Energy LLC,35.417,-119.0102,NG,0.0009,42.2,322,119
1328,CA,Olinda Landfill Gas Recovery Plant,33.9056,-117.8439,LFG,,5.4,,
1329,CA,Olive,34.1764,-118.3147,NG,0,171.9,0,
1330,CA,Olive View Medical Center,34.326242,-118.44477,NG,0.3666,5.6,17986,"5,631"
1331,CA,OLS Energy Chino,33.989626,-117.680911,NG,0.8376,30.8,225984,"86,647"
1332,CA,Olsen,40.670536,-121.890645,WAT,0.274,5,12003,0
1333,CA,Oltmans SCE at Champagne,34.043889,-117.531111,SUN,0.2121,1,1858,0
1334,CA,Oltmans SCE at Jurupa,34.05,-117.596111,SUN,0.2247,1.5,2953,0
1335,CA,One Market Plaza,37.793333,-122.394167,NG,0.1812,1.5,2381,777
1336,CA,One Ten Partners PV,34.615622,-117.936594,SUN,,2,,
1337,CA,ONeill,37.098671,-121.047718,WAT,0,25.2,-50859,0
1338,CA,Orange Grove Project,33.3594,-117.1114,NG,0.0408,118,42126,"27,071"
1339,CA,Ord Mountain Solar,34.558411,-116.935434,SUN,,60,,
1340,CA,Orion Solar I,35.150694,-118.875,SUN,0.2908,12,30567,0
1341,CA,Orion Solar II,35.150694,-118.875278,SUN,0.2807,8,19668,0
1342,CA,Ormesa I,32.8156,-115.2568,GEO,0.1366,55.2,66045,0
1343,CA,Ormesa IE,32.8041,-115.2475,GEO,,14.4,,
1344,CA,Ormesa IH,32.7842,-115.2475,GEO,0.2225,14.4,28069,0
1345,CA,Ormesa II,32.7881,-115.2481,GEO,0.1649,48,69347,0
1346,CA,Ormond Beach Generating Station,34.1292,-119.1689,NG,0.0073,"1,612.00",103280,"79,813"
1347,CA,Oro Loma,36.876847,-120.667608,SUN,,20,,
1348,CA,Oroville Cogeneration LP,39.492,-121.5628,NG,0.002,7.7,135,43
1349,CA,Ortega Highway Energy Storage,33.562061,-117.543777,MWH,0,2,-2,0
1350,CA,"Otay Landfill Gas, LLC",32.5983,-117.0178,LFG,0.4763,10.5,43814,0
1351,CA,"Otay Mesa Energy Center, LLC",32.581481,-116.914969,NG,0.4401,688.5,2654182,"1,144,915"
1352,CA,Otoe Solar Power Generation Station 1 LL,34.545,-117.191944,SUN,0.2712,1.5,3564,0
1353,CA,Owens Valley Solar Project 11,36.275144,-118.012151,SUN,0.0131,1,115,0
1354,CA,Oxbow (CA),39.003372,-120.746651,WAT,0.3631,6.1,19405,0
1355,CA,Oxnard,34.196,-119.1667,NG,0.8345,68.7,502206,"194,653"
1356,CA,Oxnard Paper Mill,34.1414,-119.1831,NG,0.7734,29,196482,"64,506"
1357,CA,Oxnard Wastewater Treatment Plant,34.140501,-119.184529,OBG,0.4871,1.5,6401,458
1358,CA,P Plant,32.894722,-117.198056,NG,0.4945,9.2,39850,"15,340"
1359,CA,Pacific Cruise Ship Terminals Berth 93,33.7331,-118.27722,SUN,0,1.1,0,
1360,CA,Pacific Ethanol Stockton Cogen Plant,37.9418,-121.3383,NG,0,4.8,0,
1361,CA,Pacific Oroville Power Inc,39.480419,-121.565663,WDS,,18,,
1362,CA,Pacific Rim Dairy Digester,36.033056,-119.51,OBG,0.7265,1,6364,5
1363,CA,Pacific Wind LLC,34.891389,-118.4325,WND,0.2475,151.7,328829,0
1364,CA,Pacific-Ultrapower Chinese Station,37.874056,-120.477556,WDS,0.5068,25,110996,"3,762"
1365,CA,Painted Hills,33.9369,-116.6183,WND,0.1973,19,32833,0
1366,CA,Painted Hills IV Wind,33.925727,-116.616666,WND,,19.5,,
1367,CA,Pala Energy Storage Yard,33.35651,-117.113599,MWH,0,1.5,-4,0
1368,CA,Palo Verde College,33.661667,-114.651667,SUN,0.2188,1.2,2300,0
1369,CA,Palomar Energy Center,33.1197,-117.117778,NG,0.4695,559,2299052,"982,654"
1370,CA,Palos Verdes Gas to Energy,33.792778,-118.35,LFG,,13,,
1371,CA,Panoche Energy Center,36.6514,-120.5833,NG,0.0968,432,366164,"208,739"
1372,CA,Panoche Valley Solar Farm,36.78005,-120.729752,SUN,,240,,
1373,CA,Paramount Refinery,33.9,-118.151389,NG,,6.7,,
1374,CA,Pardee,38.2569,-120.8507,WAT,0.4845,23.6,100166,0
1375,CA,Park Meridian #1,33.896111,-117.283611,SUN,0.2398,1.5,3151,0
1376,CA,Parker,37.477838,-120.444492,WAT,0.2096,2.7,4958,0
1377,CA,Parker Dam,34.295334,-114.140222,WAT,0.4194,120,440872,0
1378,CA,Parnassus Central Utility Plant,37.762524,-122.456747,NG,0.6167,13.4,72392,"24,764"
1379,CA,Pastoria Energy Facility,34.9556,-118.844,NG,0.6398,779,4365684,"1,860,717"
1380,CA,Patterson Pass,37.701956,-121.613708,WND,,21.9,,
1381,CA,PE Berkeley,37.870331,-122.26337,NG,0.7898,28.5,197184,"65,098"
1382,CA,Peak Valley Solar Farm,34.987952,-117.571611,SUN,,200,,
1383,CA,Pebbly Beach,33.333056,-118.310278,DFO,0.2608,12.9,29474,"24,952"
1384,CA,Perris,33.8361,-117.1831,WAT,0.065,7.9,4497,0
1385,CA,Phillips 66 Carbon Plant,38.018056,-122.2344,PC,0.3796,27.3,90784,"56,124"
1386,CA,Phillips 66 Rodeo Refinery,38.0417,-122.2583,PRG,0.7938,54.9,381772,"119,898"
1387,CA,Phoenix,38.032103,-120.326537,WAT,0.5619,1.6,7876,0
1388,CA,Phoenix Wind Power LLC,33.916667,-116.55,WND,,2.1,,
1389,CA,Pierce College,34.183611,-118.574722,SUN,,1.9,,
1390,CA,Pilot Knob,32.736642,-114.713858,WAT,0.0817,33,23619,0
1391,CA,Pine Flat,36.8326,-119.327,WAT,0.1649,165,238379,0
1392,CA,Pine Tree Solar Project,35.229635,-118.1957,SUN,0.1537,8.5,11443,0
1393,CA,Pine Tree Wind Power Project,35.248006,-118.175356,WND,0.1197,135,141609,0
1394,CA,Pinyon Pine I,35.043411,-118.211835,WND,0.2356,168,346699,0
1395,CA,Pinyon Pine II,35.026759,-118.223333,WND,0.2166,132,250438,0
1396,CA,Pio Pico Energy Center LLC,32.573889,-116.917777,NG,0.0129,321,36247,"27,828"
1397,CA,Pit 1,40.99084,-121.498243,WAT,0.3165,69.2,191861,0
1398,CA,Pit 3,40.997448,-121.748139,WAT,0.427,80.1,299634,0
1399,CA,Pit 4,40.986361,-121.84944,WAT,0.433,103.4,392158,0
1400,CA,Pit 5,40.986197,-121.977594,WAT,0.4737,141.6,587622,0
1401,CA,Pit 6,40.922568,-121.992906,WAT,0.452,79.2,313589,0
1402,CA,Pit 7,40.847462,-121.990798,WAT,0.4401,109.8,423270,0
1403,CA,Pitchess Cogen Station,34.463896,-118.593991,NG,0.7411,28.3,183720,"75,394"
1404,CA,Pittsburg Generating Station (CA),38.039168,-121.894469,NG,0.0056,"2,257.50",110709,"93,527"
1405,CA,Pixar - Emeryville,37.83286,-122.284003,NG,0.8051,1.1,7758,
1406,CA,Plant No 1 Orange County,33.6942,-117.9381,OBG,0.588,7.5,38632,"1,833"
1407,CA,Plant No 2 Orange County,33.6433,-117.9556,OBG,0.3744,16,52475,"2,208"
1408,CA,Pleasant Valley Hydro,37.41416,-118.523889,WAT,0.1222,3.2,3424,0
1409,CA,Ples I,37.6455,-118.9096,GEO,0.6608,15,86832,0
1410,CA,Poe,39.722892,-121.469814,WAT,0.3447,142.8,431224,0
1411,CA,"Pomerado Energy Storage, LLC",32.94,-117.04,MWH,,3,,
1412,CA,Ponderosa Bailey Creek,40.4579,-121.8427,WAT,0.3648,1.1,3515,0
1413,CA,Poole,37.944237,-119.2161,WAT,0.3067,11.3,30359,0
1414,CA,Port of LA Solar FiT Project,33.727977,-118.280032,SUN,0,1.1,0,
1415,CA,Portal,37.257045,-119.158936,WAT,0.1165,10.8,11019,0
1416,CA,"Portal Ridge Solar A, LLC",34.71533,-118.25908,SUN,,18.5,,
1417,CA,"Portal Ridge Solar B, LLC",34.71647,-118.2821,SUN,,20,,
1418,CA,"Portal Ridge Solar C, LLC",34.71412,-118.2739,SUN,,11.4,,
1419,CA,Porterville 6 and 7,36.05,-119.02,SUN,0.2259,3,5936,0
1420,CA,Porterville Solar,36.102778,-119.039722,SUN,0.2275,3.5,6975,0
1421,CA,Portola,39.816944,-120.463333,DFO,,6,,
1422,CA,Potrero Hills Energy Producers,38.216973,-121.979452,LFG,0.6111,8,42826,0
1423,CA,Potter Valley,39.361786,-123.127934,WAT,0.1013,9.4,8340,0
